{
  "sites": [
    {
      "id": "site-1",
      "name": "3M",
      "street": "3M Center Bldg 219 Dock",
      "city": "St. Paul",
      "state": "MN",
      "zip": "55144-1000",
      "country": "US",
      "latitude": 44.9543682,
      "longitude": -92.996836,
      "installations": 2,
      "productLines": 1,
      "priorityScore": 30,
      "priorityTier": "B",
      "hasShop": false,
      "hasStudio": false,
      "hasInnX": true,
      "contactName": "Johann Decker",
      "contactEmail": "jdecker2@mmm.com",
      "contactPhone": "(651) 736-0195",
      "printers": [
        {
          "serialNumber": "IV-0175",
          "productLine": "InnX"
        },
        {
          "serialNumber": "IV-0162",
          "productLine": "InnX"
        }
      ]
    },
    {
      "id": "site-2",
      "name": "3M - Safety Security & Protection",
      "street": "255 Roselawn Ave E #45,",
      "city": "St Paul",
      "state": "MN",
      "zip": "55117",
      "country": "US",
      "latitude": 45.0031835,
      "longitude": -93.0911106,
      "installations": 1,
      "productLines": 1,
      "priorityScore": 20,
      "priorityTier": "C",
      "hasShop": false,
      "hasStudio": true,
      "hasInnX": false,
      "contactName": "Fernando Caralt",
      "contactEmail": "kkimball.cw@mmm.com",
      "contactPhone": "+1 800-482-9005",
      "printers": [
        {
          "serialNumber": "SP011842000848",
          "productLine": "Studio"
        }
      ]
    },
    {
      "id": "site-3",
      "name": "ABCorp NA Inc.",
      "street": "225 Rivermoor",
      "city": "Boston",
      "state": "MA",
      "zip": "02132",
      "country": "US",
      "latitude": 42.2783896,
      "longitude": -71.1817984,
      "installations": 1,
      "productLines": 1,
      "priorityScore": 15,
      "priorityTier": "C",
      "hasShop": true,
      "hasStudio": false,
      "hasInnX": false,
      "contactName": "Neil Glazebrook",
      "contactEmail": "neil.glazebrook@abcorp.com",
      "contactPhone": "",
      "printers": [
        {
          "serialNumber": "DP742102000155",
          "productLine": "Shop"
        }
      ]
    },
    {
      "id": "site-4",
      "name": "Academy for Advanced Studies",
      "street": "2076 Valleydale Terr",
      "city": "Birmingham",
      "state": "AL",
      "zip": "35244",
      "country": "US",
      "latitude": 33.3470475,
      "longitude": -86.7988801,
      "installations": 1,
      "productLines": 1,
      "priorityScore": 15,
      "priorityTier": "C",
      "hasShop": false,
      "hasStudio": true,
      "hasInnX": false,
      "contactName": "Richard Gray",
      "contactEmail": "richard.gray@henry.k12.ga.us",
      "contactPhone": "+1 800-851-3987 ext 9137",
      "printers": [
        {
          "serialNumber": "SP012234000447",
          "productLine": "Studio"
        }
      ]
    },
    {
      "id": "site-5",
      "name": "Accurate Lock and Hardware",
      "street": "3434 US-22 West Suite 130",
      "city": "Branchburg",
      "state": "NJ",
      "zip": "8876",
      "country": "US",
      "latitude": 40.6099422,
      "longitude": -74.7108797,
      "installations": 1,
      "productLines": 1,
      "priorityScore": 15,
      "priorityTier": "C",
      "hasShop": false,
      "hasStudio": true,
      "hasInnX": false,
      "contactName": "Srinivas Sundarram, Sriharsha",
      "contactEmail": "ssrinivassundarram@fairfield.edu",
      "contactPhone": "732-699-0400",
      "printers": [
        {
          "serialNumber": "SP011911001676",
          "productLine": "Studio"
        }
      ]
    },
    {
      "id": "site-6",
      "name": "ADDTAC, Inc.",
      "street": "2940 E. La Cresta Avenue",
      "city": "Anaheim",
      "state": "CA",
      "zip": "92806",
      "country": "US",
      "latitude": 33.8544965,
      "longitude": -117.8656207,
      "installations": 1,
      "productLines": 1,
      "priorityScore": 60,
      "priorityTier": "A",
      "hasShop": true,
      "hasStudio": false,
      "hasInnX": false,
      "contactName": "Ted Gih",
      "contactEmail": "teddy@addtac.com",
      "contactPhone": "888-375-7676",
      "printers": [
        {
          "serialNumber": "DP742102000149",
          "productLine": "Shop"
        }
      ]
    },
    {
      "id": "site-7",
      "name": "Advanced Geolocations Solutions, LLC",
      "street": "Accounts Payable Advanced Geolocation Solutions, LLC 21515 Ridgetop Circle, Ste 390",
      "city": "Sterling",
      "state": "VA",
      "zip": "20166",
      "country": "US",
      "latitude": 39.0303059,
      "longitude": -77.4061017,
      "installations": 1,
      "productLines": 1,
      "priorityScore": 10,
      "priorityTier": "C",
      "hasShop": false,
      "hasStudio": true,
      "hasInnX": false,
      "contactName": "Aref Fouladi",
      "contactEmail": "aref@advancedgeos.com",
      "contactPhone": "703-727-0772",
      "printers": [
        {
          "serialNumber": "SP011849001382",
          "productLine": "Studio"
        }
      ]
    },
    {
      "id": "site-8",
      "name": "Advanced Powder Products Inc.",
      "street": "301 Enterprise Drive",
      "city": "Philisburg",
      "state": "PA",
      "zip": "16866",
      "country": "US",
      "latitude": 40.8953745,
      "longitude": -78.1945369,
      "installations": 1,
      "productLines": 1,
      "priorityScore": 20,
      "priorityTier": "C",
      "hasShop": false,
      "hasStudio": false,
      "hasInnX": true,
      "contactName": "Nicole Reams",
      "contactEmail": "nreams@4-app.com",
      "contactPhone": "(814) 342-5898",
      "printers": [
        {
          "serialNumber": "IV-0107",
          "productLine": "InnX"
        }
      ]
    },
    {
      "id": "site-9",
      "name": "AdvancedTek - Demo",
      "street": "255 Roselawn Ave E #45,",
      "city": "St Paul",
      "state": "MN",
      "zip": "55117",
      "country": "US",
      "latitude": 45.0031835,
      "longitude": -93.0911106,
      "installations": 1,
      "productLines": 1,
      "priorityScore": 20,
      "priorityTier": "C",
      "hasShop": false,
      "hasStudio": true,
      "hasInnX": false,
      "contactName": "",
      "contactEmail": "",
      "contactPhone": "",
      "printers": [
        {
          "serialNumber": "SP011823000289",
          "productLine": "Studio"
        }
      ]
    },
    {
      "id": "site-10",
      "name": "AIM MRO",
      "street": "375 Center Street",
      "city": "Miamiville",
      "state": "OH",
      "zip": "45147",
      "country": "US",
      "latitude": 39.2122711,
      "longitude": -84.29703,
      "installations": 1,
      "productLines": 1,
      "priorityScore": 20,
      "priorityTier": "C",
      "hasShop": false,
      "hasStudio": false,
      "hasInnX": true,
      "contactName": "Justin Boreman",
      "contactEmail": "justin.boreman@aimmro.com",
      "contactPhone": "(513) 831-2938",
      "printers": [
        {
          "serialNumber": "INV-0265",
          "productLine": "InnX"
        }
      ]
    },
    {
      "id": "site-11",
      "name": "Aircraft Prototype Systems Division",
      "street": "Comptroller, Internal Entitlements Team N64142 NAWCAD Bldg 440, Room 25 47122 Liljencrantz Road",
      "city": "Patuxent River",
      "state": "MD",
      "zip": "20670-1549",
      "country": "US",
      "latitude": 38.27146,
      "longitude": -76.4482002,
      "installations": 1,
      "productLines": 1,
      "priorityScore": 10,
      "priorityTier": "C",
      "hasShop": false,
      "hasStudio": true,
      "hasInnX": false,
      "contactName": "Hartwig, Chauncey F CIV USN NAWCAD",
      "contactEmail": "chauncey.f.hartwig.civ@us.navy.mil",
      "contactPhone": "1-800-872-6289",
      "printers": [
        {
          "serialNumber": "SP011823000287",
          "productLine": "Studio"
        }
      ]
    },
    {
      "id": "site-12",
      "name": "Albany Technical College",
      "street": "2076 Valleydale Terr",
      "city": "Birmingham",
      "state": "AL",
      "zip": "35244",
      "country": "US",
      "latitude": 33.3470475,
      "longitude": -86.7988801,
      "installations": 1,
      "productLines": 1,
      "priorityScore": 10,
      "priorityTier": "C",
      "hasShop": false,
      "hasStudio": true,
      "hasInnX": false,
      "contactName": "Edrian Mallory",
      "contactEmail": "emallory@albanytech.edu",
      "contactPhone": "(229) 430-3610",
      "printers": [
        {
          "serialNumber": "SP011909001652",
          "productLine": "Studio"
        }
      ]
    },
    {
      "id": "site-13",
      "name": "Alfred University",
      "street": "2 Pine Street",
      "city": "Alfred",
      "state": "NY",
      "zip": "14802",
      "country": "US",
      "latitude": 42.2569502,
      "longitude": -77.787952,
      "installations": 1,
      "productLines": 1,
      "priorityScore": 20,
      "priorityTier": "C",
      "hasShop": false,
      "hasStudio": false,
      "hasInnX": true,
      "contactName": "Taylor, Erin S",
      "contactEmail": "taylore@alfred.edu",
      "contactPhone": "(607) 968-1814",
      "printers": [
        {
          "serialNumber": "IV-0110",
          "productLine": "InnX"
        }
      ]
    },
    {
      "id": "site-14",
      "name": "American Tactical",
      "street": "910 Day Hill Road",
      "city": "Windsor",
      "state": "CT",
      "zip": "06095",
      "country": "US",
      "latitude": 41.8796089,
      "longitude": -72.6995799,
      "installations": 1,
      "productLines": 1,
      "priorityScore": 20,
      "priorityTier": "C",
      "hasShop": false,
      "hasStudio": true,
      "hasInnX": false,
      "contactName": "Matt Diehl",
      "contactEmail": "matt.diehl@americantactical.us",
      "contactPhone": "860-687-3475",
      "printers": [
        {
          "serialNumber": "SP011851001538",
          "productLine": "Studio"
        }
      ]
    },
    {
      "id": "site-15",
      "name": "Americana Outdoors",
      "street": "3200 Sheridan Road",
      "city": "Kenosha",
      "state": "WI",
      "zip": "53140",
      "country": "US",
      "latitude": 42.6084396,
      "longitude": -87.8229569,
      "installations": 1,
      "productLines": 1,
      "priorityScore": 40,
      "priorityTier": "B",
      "hasShop": false,
      "hasStudio": true,
      "hasInnX": false,
      "contactName": "",
      "contactEmail": "",
      "contactPhone": "",
      "printers": [
        {
          "serialNumber": "SP011844001032",
          "productLine": "Studio"
        }
      ]
    },
    {
      "id": "site-16",
      "name": "Ametek Brookfield",
      "street": "11 Commerce Blvd",
      "city": "Middleboro",
      "state": "",
      "zip": "02346",
      "country": "US",
      "latitude": 41.9049757,
      "longitude": -70.9563415,
      "installations": 1,
      "productLines": 1,
      "priorityScore": 10,
      "priorityTier": "C",
      "hasShop": false,
      "hasStudio": true,
      "hasInnX": false,
      "contactName": "Kurt Wivagg",
      "contactEmail": "kurt.wivagg@ametek.com",
      "contactPhone": "",
      "printers": [
        {
          "serialNumber": "SP012138008769",
          "productLine": "Studio"
        }
      ]
    },
    {
      "id": "site-17",
      "name": "AMfg Labs",
      "street": "130 East South Street",
      "city": "Barnesville",
      "state": "OH",
      "zip": "43713",
      "country": "US",
      "latitude": 39.9861085,
      "longitude": -81.176488,
      "installations": 1,
      "productLines": 1,
      "priorityScore": 20,
      "priorityTier": "C",
      "hasShop": false,
      "hasStudio": false,
      "hasInnX": true,
      "contactName": "Ty Leach",
      "contactEmail": "tyleach@amfglabs.com",
      "contactPhone": "740-296-9823",
      "printers": [
        {
          "serialNumber": "INV - 0142",
          "productLine": "InnX"
        }
      ]
    },
    {
      "id": "site-18",
      "name": "AmPd Labs Inc. - Central Parkway",
      "street": "1718a West 23rd Street",
      "city": "Houston",
      "state": "TX",
      "zip": "77008",
      "country": "US",
      "latitude": 29.80627,
      "longitude": -95.429918,
      "installations": 3,
      "productLines": 1,
      "priorityScore": 35,
      "priorityTier": "B",
      "hasShop": true,
      "hasStudio": false,
      "hasInnX": false,
      "contactName": "Tim Neal",
      "contactEmail": "tim@ampdlabs.com",
      "contactPhone": "832-309-1044",
      "printers": [
        {
          "serialNumber": "DP742213000289",
          "productLine": "Shop"
        },
        {
          "serialNumber": "DP742102000153",
          "productLine": "Shop"
        },
        {
          "serialNumber": "DP742114000184",
          "productLine": "Shop"
        }
      ]
    },
    {
      "id": "site-19",
      "name": "Antelope Valley College",
      "street": "3041 West Avenue K",
      "city": "Lancaster",
      "state": "CA",
      "zip": "93536",
      "country": "US",
      "latitude": 34.6773241,
      "longitude": -118.1866466,
      "installations": 1,
      "productLines": 1,
      "priorityScore": 10,
      "priorityTier": "C",
      "hasShop": false,
      "hasStudio": true,
      "hasInnX": false,
      "contactName": "Joshua A Maldonado",
      "contactEmail": "joshua.maldonado@avc.edu",
      "contactPhone": "",
      "printers": [
        {
          "serialNumber": "SP011952005811",
          "productLine": "Studio"
        }
      ]
    },
    {
      "id": "site-20",
      "name": "Apple - Sunnyvale",
      "street": "One Apple Park Way",
      "city": "Cupertino",
      "state": "CA",
      "zip": "95014",
      "country": "US",
      "latitude": 37.332206,
      "longitude": -122.0110271,
      "installations": 1,
      "productLines": 1,
      "priorityScore": 15,
      "priorityTier": "C",
      "hasShop": true,
      "hasStudio": false,
      "hasInnX": false,
      "contactName": "Jeff Harmon",
      "contactEmail": "jeffrey_harmon@apple.com",
      "contactPhone": "14089961010",
      "printers": [
        {
          "serialNumber": "DP742140000233",
          "productLine": "Shop"
        }
      ]
    },
    {
      "id": "site-21",
      "name": "Applied Machine Solutions, Inc. -Demo - Terminated VAR",
      "street": "20 Harmony Ct.",
      "city": "Jasper",
      "state": "GA",
      "zip": "30143",
      "country": "US",
      "latitude": 34.4315665,
      "longitude": -84.4329752,
      "installations": 1,
      "productLines": 1,
      "priorityScore": 30,
      "priorityTier": "B",
      "hasShop": false,
      "hasStudio": true,
      "hasInnX": false,
      "contactName": "",
      "contactEmail": "",
      "contactPhone": "",
      "printers": [
        {
          "serialNumber": "SP012030007067",
          "productLine": "Studio"
        }
      ]
    },
    {
      "id": "site-22",
      "name": "Applied Materials VSE",
      "street": "P.O. Box 210067",
      "city": "Dallas",
      "state": "TX",
      "zip": "75211",
      "country": "US",
      "latitude": 32.7667894,
      "longitude": -96.8625608,
      "installations": 1,
      "productLines": 1,
      "priorityScore": 10,
      "priorityTier": "C",
      "hasShop": false,
      "hasStudio": true,
      "hasInnX": false,
      "contactName": "Craig Chaney",
      "contactEmail": "craig_chaney@amat.com",
      "contactPhone": "512 272-7075",
      "printers": [
        {
          "serialNumber": "SP011842000845",
          "productLine": "Studio"
        }
      ]
    },
    {
      "id": "site-23",
      "name": "Arconic, Inc.",
      "street": "100 Technical Drive",
      "city": "New Kensington",
      "state": "PA",
      "zip": "15069",
      "country": "US",
      "latitude": 40.57,
      "longitude": -79.77,
      "installations": 1,
      "productLines": 1,
      "priorityScore": 20,
      "priorityTier": "C",
      "hasShop": false,
      "hasStudio": false,
      "hasInnX": true,
      "contactName": "Janet Bressler",
      "contactEmail": "jbressler@4-app.com",
      "contactPhone": "(724) 337-5437",
      "printers": [
        {
          "serialNumber": "IV-0114",
          "productLine": "InnX"
        }
      ]
    },
    {
      "id": "site-24",
      "name": "Argonne National Laboratory",
      "street": "2979 Triverton Pike Drive #200",
      "city": "Fitchburg",
      "state": "WI",
      "zip": "53711",
      "country": "US",
      "latitude": 43.0162557,
      "longitude": -89.4302359,
      "installations": 2,
      "productLines": 1,
      "priorityScore": 20,
      "priorityTier": "C",
      "hasShop": false,
      "hasStudio": true,
      "hasInnX": false,
      "contactName": "Rusthoven, Brian M.",
      "contactEmail": "brianr@anl.gov",
      "contactPhone": "608.210.2897",
      "printers": [
        {
          "serialNumber": "SP011832000349",
          "productLine": "Studio"
        },
        {
          "serialNumber": "SP011912001686",
          "productLine": "Studio"
        }
      ]
    },
    {
      "id": "site-25",
      "name": "Argonne National Laboratory",
      "street": "9700 S Cass Ave",
      "city": "Lemont",
      "state": "IL",
      "zip": "60439",
      "country": "US",
      "latitude": 41.7182904,
      "longitude": -87.9789233,
      "installations": 1,
      "productLines": 1,
      "priorityScore": 20,
      "priorityTier": "C",
      "hasShop": false,
      "hasStudio": false,
      "hasInnX": true,
      "contactName": "Panko, Alessandra",
      "contactEmail": "apanko@anl.gov",
      "contactPhone": "(630) 252-4638",
      "printers": [
        {
          "serialNumber": "IV-0182",
          "productLine": "InnX"
        }
      ]
    },
    {
      "id": "site-26",
      "name": "Ariel Corporation",
      "street": "Attn:  Accounts Payable 165 N Arlington Hts Rd, Ste 101",
      "city": "Buffalo Grove",
      "state": "IL",
      "zip": "60089",
      "country": "US",
      "latitude": 42.1560235,
      "longitude": -87.9831814,
      "installations": 1,
      "productLines": 1,
      "priorityScore": 130,
      "priorityTier": "A",
      "hasShop": false,
      "hasStudio": true,
      "hasInnX": false,
      "contactName": "Sam Wright",
      "contactEmail": "swright@arielcorp.com",
      "contactPhone": "8883082284",
      "printers": [
        {
          "serialNumber": "SP011946005270",
          "productLine": "Studio"
        }
      ]
    },
    {
      "id": "site-27",
      "name": "ARKWIN INDUSTRIES Bethpage NY",
      "street": "686 Main Street",
      "city": "Westbury",
      "state": "NY",
      "zip": "11590",
      "country": "US",
      "latitude": 40.7570575,
      "longitude": -73.5581993,
      "installations": 1,
      "productLines": 1,
      "priorityScore": 10,
      "priorityTier": "C",
      "hasShop": false,
      "hasStudio": true,
      "hasInnX": false,
      "contactName": "Hugger, Alex",
      "contactEmail": "ahugger@arkwin.com",
      "contactPhone": "1 (516) 333-2640",
      "printers": [
        {
          "serialNumber": "SP012223010010",
          "productLine": "Studio"
        }
      ]
    },
    {
      "id": "site-28",
      "name": "Arthrex",
      "street": "1336 Innovation Boulevard",
      "city": "Naples",
      "state": "FL",
      "zip": "34108",
      "country": "US",
      "latitude": 26.2683001,
      "longitude": -81.792206,
      "installations": 1,
      "productLines": 1,
      "priorityScore": 20,
      "priorityTier": "C",
      "hasShop": false,
      "hasStudio": false,
      "hasInnX": true,
      "contactName": "Danielle Gutierrez",
      "contactEmail": "danielle.hadd@arthrex.com",
      "contactPhone": "(239) 598-5516",
      "printers": [
        {
          "serialNumber": "INV-0289",
          "productLine": "InnX"
        }
      ]
    },
    {
      "id": "site-29",
      "name": "Auburn University",
      "street": "182 South College Street",
      "city": "Auburn",
      "state": "AL",
      "zip": "36849",
      "country": "US",
      "latitude": 32.6047052,
      "longitude": -85.4828041,
      "installations": 2,
      "productLines": 2,
      "priorityScore": 60,
      "priorityTier": "A",
      "hasShop": true,
      "hasStudio": true,
      "hasInnX": false,
      "contactName": "Lewis Payton",
      "contactEmail": "paytoln@auburn.edu",
      "contactPhone": "(334) 844-3422",
      "printers": [
        {
          "serialNumber": "DP742111000164",
          "productLine": "Shop"
        },
        {
          "serialNumber": "SP012140008835",
          "productLine": "Studio"
        }
      ]
    },
    {
      "id": "site-30",
      "name": "Autodesk",
      "street": "23 Drydock Avenue",
      "city": "Boston",
      "state": "MA",
      "zip": "2210",
      "country": "US",
      "latitude": 42.3444765,
      "longitude": -71.0301489,
      "installations": 1,
      "productLines": 1,
      "priorityScore": 10,
      "priorityTier": "C",
      "hasShop": false,
      "hasStudio": true,
      "hasInnX": false,
      "contactName": "Noa Kaplan",
      "contactEmail": "noa.kaplan@autodesk.com",
      "contactPhone": "",
      "printers": [
        {
          "serialNumber": "SP011909001654",
          "productLine": "Studio"
        }
      ]
    },
    {
      "id": "site-31",
      "name": "AZOTH 3D Main Warehouse",
      "street": "1255 Beach Court",
      "city": "Saline",
      "state": "MI",
      "zip": "48176",
      "country": "US",
      "latitude": 42.1726505,
      "longitude": -83.7614892,
      "installations": 2,
      "productLines": 2,
      "priorityScore": 50,
      "priorityTier": "A",
      "hasShop": true,
      "hasStudio": true,
      "hasInnX": false,
      "contactName": "Ronnie Sherrer",
      "contactEmail": "rsherrer@azoth3d.com",
      "contactPhone": "+1 734-677-0454",
      "printers": [
        {
          "serialNumber": "DP742127000193",
          "productLine": "Shop"
        },
        {
          "serialNumber": "SP011907001639",
          "productLine": "Studio"
        }
      ]
    },
    {
      "id": "site-32",
      "name": "Bayer Research and Development Services",
      "street": "Attn:  Accounts Payable",
      "city": "Hazelwood",
      "state": "MO",
      "zip": "63042",
      "country": "US",
      "latitude": 38.7884682,
      "longitude": -90.403094,
      "installations": 1,
      "productLines": 1,
      "priorityScore": 10,
      "priorityTier": "C",
      "hasShop": false,
      "hasStudio": true,
      "hasInnX": false,
      "contactName": "Brant Barber",
      "contactEmail": "brant.barber@bayer.com",
      "contactPhone": "",
      "printers": [
        {
          "serialNumber": "SP012208009573",
          "productLine": "Studio"
        }
      ]
    },
    {
      "id": "site-33",
      "name": "Beckatt Solutions, LLC - Demo - termindated Var",
      "street": "1750 Todd Farm Drive #c",
      "city": "Elgin",
      "state": "IL",
      "zip": "60123",
      "country": "US",
      "latitude": 42.0601099,
      "longitude": -88.3226978,
      "installations": 1,
      "productLines": 1,
      "priorityScore": 10,
      "priorityTier": "C",
      "hasShop": false,
      "hasStudio": true,
      "hasInnX": false,
      "contactName": "",
      "contactEmail": "",
      "contactPhone": "",
      "printers": [
        {
          "serialNumber": "SP011933004062",
          "productLine": "Studio"
        }
      ]
    },
    {
      "id": "site-34",
      "name": "Beehive Ind-Loveland",
      "street": "422 Wards Corner Road",
      "city": "Loveland",
      "state": "OH",
      "zip": "45140",
      "country": "US",
      "latitude": 39.2225917,
      "longitude": -84.2861695,
      "installations": 2,
      "productLines": 1,
      "priorityScore": 25,
      "priorityTier": "B",
      "hasShop": true,
      "hasStudio": false,
      "hasInnX": false,
      "contactName": "Victor Fulton",
      "contactEmail": "Victor.Fulton@beehiveind.com",
      "contactPhone": "(479) 264-7238",
      "printers": [
        {
          "serialNumber": "DP742113000173",
          "productLine": "Shop"
        },
        {
          "serialNumber": "DP742113000180",
          "productLine": "Shop"
        }
      ]
    },
    {
      "id": "site-35",
      "name": "Berkshire Innovation Center",
      "street": "910 Day Hill Road",
      "city": "Windsor",
      "state": "CT",
      "zip": "06095",
      "country": "US",
      "latitude": 41.8796089,
      "longitude": -72.6995799,
      "installations": 1,
      "productLines": 1,
      "priorityScore": 25,
      "priorityTier": "B",
      "hasShop": false,
      "hasStudio": true,
      "hasInnX": false,
      "contactName": "Steve Longpre",
      "contactEmail": "opsmgr@the-bic.org",
      "contactPhone": "860-687-3475",
      "printers": [
        {
          "serialNumber": "SP011904001604",
          "productLine": "Studio"
        }
      ]
    },
    {
      "id": "site-36",
      "name": "BG Precision",
      "street": "319 South First Street",
      "city": "Temple",
      "state": "TX",
      "zip": "76504",
      "country": "US",
      "latitude": 31.0931361,
      "longitude": -97.3432644,
      "installations": 1,
      "productLines": 1,
      "priorityScore": 90,
      "priorityTier": "A",
      "hasShop": true,
      "hasStudio": false,
      "hasInnX": false,
      "contactName": "Tanner Shipman",
      "contactEmail": "tanner@bgprecisionmachine.com",
      "contactPhone": "(254) 742-2050",
      "printers": [
        {
          "serialNumber": "DP742148000262",
          "productLine": "Shop"
        }
      ]
    },
    {
      "id": "site-37",
      "name": "Bloom Energy Corporation Sunnvale, CA",
      "street": "401 Whitney Pl",
      "city": "Fremont",
      "state": "CA",
      "zip": "94539",
      "country": "US",
      "latitude": 37.4695075,
      "longitude": -121.9217471,
      "installations": 1,
      "productLines": 1,
      "priorityScore": 15,
      "priorityTier": "C",
      "hasShop": true,
      "hasStudio": false,
      "hasInnX": false,
      "contactName": "Adam Byrd",
      "contactEmail": "adam.byrd@bloomenergy.com",
      "contactPhone": "971.335.4377",
      "printers": [
        {
          "serialNumber": "DP742140000235",
          "productLine": "Shop"
        }
      ]
    },
    {
      "id": "site-38",
      "name": "Blue Origin, LLC",
      "street": "2076 Valleydale Terrace",
      "city": "Birmingham",
      "state": "AL",
      "zip": "35244",
      "country": "US",
      "latitude": 33.3470475,
      "longitude": -86.7988801,
      "installations": 2,
      "productLines": 1,
      "priorityScore": 15,
      "priorityTier": "C",
      "hasShop": false,
      "hasStudio": true,
      "hasInnX": false,
      "contactName": "Evan Lang",
      "contactEmail": "elang@blueorigin.com",
      "contactPhone": "1 (888) 220-6293",
      "printers": [
        {
          "serialNumber": "SP011905001618",
          "productLine": "Studio"
        },
        {
          "serialNumber": "SP011905001632",
          "productLine": "Studio"
        }
      ]
    },
    {
      "id": "site-39",
      "name": "Booz Allen Hamilton",
      "street": "8283 Greensboro Drive",
      "city": "McLean",
      "state": "VA",
      "zip": "22102",
      "country": "US",
      "latitude": 38.922368,
      "longitude": -77.2322955,
      "installations": 1,
      "productLines": 1,
      "priorityScore": 10,
      "priorityTier": "C",
      "hasShop": false,
      "hasStudio": true,
      "hasInnX": false,
      "contactName": "Jeff Wright",
      "contactEmail": "Wright_Jeffrey@bah.com",
      "contactPhone": "",
      "printers": [
        {
          "serialNumber": "SP011943005090",
          "productLine": "Studio"
        }
      ]
    },
    {
      "id": "site-40",
      "name": "Boston Scientific",
      "street": "Brisas de Anasco Calle 8 E12",
      "city": "Anasco",
      "state": "PR",
      "zip": "00610",
      "country": "US",
      "latitude": 18.28206,
      "longitude": -67.1470935,
      "installations": 1,
      "productLines": 1,
      "priorityScore": 10,
      "priorityTier": "C",
      "hasShop": false,
      "hasStudio": true,
      "hasInnX": false,
      "contactName": "Linda Low",
      "contactEmail": "linda.low@bsci.com",
      "contactPhone": "",
      "printers": [
        {
          "serialNumber": "SP012029007022",
          "productLine": "Studio"
        }
      ]
    },
    {
      "id": "site-41",
      "name": "BP Aero",
      "street": "3434 US-22 West Suite 130",
      "city": "Branchburg",
      "state": "NJ",
      "zip": "8876",
      "country": "US",
      "latitude": 40.6099422,
      "longitude": -74.7108797,
      "installations": 1,
      "productLines": 1,
      "priorityScore": 10,
      "priorityTier": "C",
      "hasShop": false,
      "hasStudio": true,
      "hasInnX": false,
      "contactName": "",
      "contactEmail": "rabbitfeast11@gmail.com",
      "contactPhone": "732-699-0400",
      "printers": [
        {
          "serialNumber": "SP011837000532",
          "productLine": "Studio"
        }
      ]
    },
    {
      "id": "site-42",
      "name": "Brigham Young University",
      "street": "",
      "city": "Provo",
      "state": "UT",
      "zip": "84602",
      "country": "US",
      "latitude": 40.2524308,
      "longitude": -111.6502622,
      "installations": 1,
      "productLines": 1,
      "priorityScore": 20,
      "priorityTier": "C",
      "hasShop": false,
      "hasStudio": false,
      "hasInnX": true,
      "contactName": "Nathan Crane",
      "contactEmail": "nbcrane@byu.edu",
      "contactPhone": "(801) 422-1778",
      "printers": [
        {
          "serialNumber": "INV-0109",
          "productLine": "InnX"
        }
      ]
    },
    {
      "id": "site-43",
      "name": "Buffalo Manufacturing Works",
      "street": "847 Main Street",
      "city": "Buffalo",
      "state": "NY",
      "zip": "14203",
      "country": "US",
      "latitude": 42.897449,
      "longitude": -78.8700994,
      "installations": 1,
      "productLines": 1,
      "priorityScore": 20,
      "priorityTier": "C",
      "hasShop": false,
      "hasStudio": false,
      "hasInnX": true,
      "contactName": "Dora Cheung",
      "contactEmail": "dcheung@ewi.org",
      "contactPhone": "(716) 710-5540",
      "printers": [
        {
          "serialNumber": "IV-0111",
          "productLine": "InnX"
        }
      ]
    },
    {
      "id": "site-44",
      "name": "Burke Aerospace (Turbine Technologies) - Studio - CT",
      "street": "126 Hyde Road",
      "city": "Farmington",
      "state": "CT",
      "zip": "06032",
      "country": "US",
      "latitude": 41.6998816,
      "longitude": -72.8671914,
      "installations": 1,
      "productLines": 1,
      "priorityScore": 10,
      "priorityTier": "C",
      "hasShop": false,
      "hasStudio": true,
      "hasInnX": false,
      "contactName": "Jake Cabrila",
      "contactEmail": "jcabrila@burkeaerospace.com",
      "contactPhone": "",
      "printers": [
        {
          "serialNumber": "SP012138008775",
          "productLine": "Studio"
        }
      ]
    },
    {
      "id": "site-45",
      "name": "BWX Technologies",
      "street": "1720 Mt Athos Road",
      "city": "Lynchburg",
      "state": "VA",
      "zip": "24501",
      "country": "US",
      "latitude": 37.411509,
      "longitude": -79.0524101,
      "installations": 1,
      "productLines": 1,
      "priorityScore": 20,
      "priorityTier": "C",
      "hasShop": false,
      "hasStudio": false,
      "hasInnX": true,
      "contactName": "St. John, Alden L",
      "contactEmail": "alstjohn@bwxt.com",
      "contactPhone": "(434) 316-7540",
      "printers": [
        {
          "serialNumber": "IV0171",
          "productLine": "InnX"
        }
      ]
    },
    {
      "id": "site-46",
      "name": "CAD/CAM Consulting Services Inc. - Demo",
      "street": "2940 E. La Cresta Avenue",
      "city": "Anaheim",
      "state": "CA",
      "zip": "92806",
      "country": "US",
      "latitude": 33.8544965,
      "longitude": -117.8656207,
      "installations": 1,
      "productLines": 1,
      "priorityScore": 20,
      "priorityTier": "C",
      "hasShop": false,
      "hasStudio": true,
      "hasInnX": false,
      "contactName": "Patrick Shelar",
      "contactEmail": "patricks@cad-cam.com",
      "contactPhone": "888-375-7676",
      "printers": [
        {
          "serialNumber": "SP012006006252",
          "productLine": "Studio"
        }
      ]
    },
    {
      "id": "site-47",
      "name": "CAL POLY CORP dba CAL POLY PARTNERS",
      "street": "Campus Dining Receiving Dock/Bulding 19 One Grand Ave",
      "city": "San Luis Obispo",
      "state": "CA",
      "zip": "93407",
      "country": "US",
      "latitude": 35.2995442,
      "longitude": -120.6596916,
      "installations": 1,
      "productLines": 1,
      "priorityScore": 20,
      "priorityTier": "C",
      "hasShop": false,
      "hasStudio": false,
      "hasInnX": true,
      "contactName": "Thale Smith",
      "contactEmail": "tsmith50@calpoly.edu",
      "contactPhone": "(805)756-0699",
      "printers": [
        {
          "serialNumber": "INV-0300",
          "productLine": "InnX"
        }
      ]
    },
    {
      "id": "site-48",
      "name": "Caldwell Community College & Technical Institute",
      "street": "2076 Valleydale Terr",
      "city": "Birmingham",
      "state": "AL",
      "zip": "35244",
      "country": "US",
      "latitude": 33.3470475,
      "longitude": -86.7988801,
      "installations": 1,
      "productLines": 1,
      "priorityScore": 20,
      "priorityTier": "C",
      "hasShop": false,
      "hasStudio": true,
      "hasInnX": false,
      "contactName": "",
      "contactEmail": "",
      "contactPhone": "",
      "printers": [
        {
          "serialNumber": "SP012217009795",
          "productLine": "Studio"
        }
      ]
    },
    {
      "id": "site-49",
      "name": "Canopy Aerospace",
      "street": "8101 Midway Drive, Unit A",
      "city": "Littleton",
      "state": "CO",
      "zip": "80125",
      "country": "US",
      "latitude": 39.5482961,
      "longitude": -105.0389575,
      "installations": 1,
      "productLines": 1,
      "priorityScore": 20,
      "priorityTier": "C",
      "hasShop": false,
      "hasStudio": false,
      "hasInnX": true,
      "contactName": "Matthew Gresh",
      "contactEmail": "gresh@canopyaerospace.com",
      "contactPhone": "",
      "printers": [
        {
          "serialNumber": "INV-0288",
          "productLine": "InnX"
        }
      ]
    },
    {
      "id": "site-50",
      "name": "Carpenter Technology Corporation",
      "street": "101 West Bern Street",
      "city": "Reading",
      "state": "PA",
      "zip": "19601",
      "country": "US",
      "latitude": 40.3624239,
      "longitude": -75.9351965,
      "installations": 1,
      "productLines": 1,
      "priorityScore": 20,
      "priorityTier": "C",
      "hasShop": false,
      "hasStudio": false,
      "hasInnX": true,
      "contactName": "Liza Ruiz",
      "contactEmail": "lizar@esreading.com",
      "contactPhone": "(610) 208-2553",
      "printers": [
        {
          "serialNumber": "IV-0152",
          "productLine": "InnX"
        }
      ]
    },
    {
      "id": "site-51",
      "name": "CASTEM Technology Laboratories, Inc.",
      "street": "10171 Olga Lane, Suite F",
      "city": "Houston",
      "state": "TX",
      "zip": "77041",
      "country": "US",
      "latitude": 29.85632,
      "longitude": -95.5446339,
      "installations": 1,
      "productLines": 1,
      "priorityScore": 10,
      "priorityTier": "C",
      "hasShop": false,
      "hasStudio": true,
      "hasInnX": false,
      "contactName": "Kazuki Okamoto",
      "contactEmail": "kazuki@castem.com",
      "contactPhone": "+1 713-255-0290",
      "printers": [
        {
          "serialNumber": "SP011905001636",
          "productLine": "Studio"
        }
      ]
    },
    {
      "id": "site-52",
      "name": "CCDC AVMC, US Army - Redstone Arsenal  Bldg 704",
      "street": "2076 Valleydale Terrace",
      "city": "Birmingham",
      "state": "AL",
      "zip": "35244",
      "country": "US",
      "latitude": 33.3470475,
      "longitude": -86.7988801,
      "installations": 1,
      "productLines": 1,
      "priorityScore": 10,
      "priorityTier": "C",
      "hasShop": false,
      "hasStudio": true,
      "hasInnX": false,
      "contactName": "Walsh, Wyatt D CIV USARMY DEVCOM AVMC",
      "contactEmail": "wyatt.d.walsh.civ@army.mil",
      "contactPhone": "1 (888) 220-6293",
      "printers": [
        {
          "serialNumber": "SP012033007145",
          "productLine": "Studio"
        }
      ]
    },
    {
      "id": "site-53",
      "name": "CDSA Dam Nech",
      "street": "Commanding Officer 17632 Dahlgren Road, Suite 202",
      "city": "Dahlgren",
      "state": "VA",
      "zip": "22448-5114",
      "country": "US",
      "latitude": 38.3276305,
      "longitude": -77.0381435,
      "installations": 1,
      "productLines": 1,
      "priorityScore": 10,
      "priorityTier": "C",
      "hasShop": false,
      "hasStudio": true,
      "hasInnX": false,
      "contactName": "",
      "contactEmail": "",
      "contactPhone": "",
      "printers": [
        {
          "serialNumber": "SP011831000347",
          "productLine": "Studio"
        }
      ]
    },
    {
      "id": "site-54",
      "name": "Centers for Disease Control (OH)",
      "street": "3434 US-22 West Suite 130",
      "city": "Branchburg",
      "state": "NJ",
      "zip": "8876",
      "country": "US",
      "latitude": 40.6099422,
      "longitude": -74.7108797,
      "installations": 1,
      "productLines": 1,
      "priorityScore": 10,
      "priorityTier": "C",
      "hasShop": false,
      "hasStudio": true,
      "hasInnX": false,
      "contactName": "Dye, Nicholas",
      "contactEmail": "jes0@cdc.gov",
      "contactPhone": "732-699-0400",
      "printers": [
        {
          "serialNumber": "SP012208009569",
          "productLine": "Studio"
        }
      ]
    },
    {
      "id": "site-55",
      "name": "Central Community College",
      "street": "1018 - 8th Street PMB 22",
      "city": "Boone",
      "state": "IA",
      "zip": "50036",
      "country": "US",
      "latitude": 42.0635198,
      "longitude": -93.8774694,
      "installations": 1,
      "productLines": 1,
      "priorityScore": 40,
      "priorityTier": "B",
      "hasShop": false,
      "hasStudio": true,
      "hasInnX": false,
      "contactName": "",
      "contactEmail": "",
      "contactPhone": "515 598 2626",
      "printers": [
        {
          "serialNumber": "SP011844001031",
          "productLine": "Studio"
        }
      ]
    },
    {
      "id": "site-56",
      "name": "Challenge Tool & Manufacturing",
      "street": "2979 Triverton Pike Drive #200",
      "city": "Fitchburg",
      "state": "WI",
      "zip": "53711",
      "country": "US",
      "latitude": 43.0162557,
      "longitude": -89.4302359,
      "installations": 1,
      "productLines": 1,
      "priorityScore": 15,
      "priorityTier": "C",
      "hasShop": false,
      "hasStudio": true,
      "hasInnX": false,
      "contactName": "",
      "contactEmail": "",
      "contactPhone": "",
      "printers": [
        {
          "serialNumber": "SP011932003796",
          "productLine": "Studio"
        }
      ]
    },
    {
      "id": "site-57",
      "name": "Chippewa Valley Technical College (CVTC)",
      "street": "15150 25th Avenue North",
      "city": "Minneapolis",
      "state": "MN",
      "zip": "55447",
      "country": "US",
      "latitude": 45.0067812,
      "longitude": -93.4723709,
      "installations": 1,
      "productLines": 1,
      "priorityScore": 10,
      "priorityTier": "C",
      "hasShop": false,
      "hasStudio": true,
      "hasInnX": false,
      "contactName": "",
      "contactEmail": "czimmerman30@student.cvtc.edu",
      "contactPhone": "1 (763) 476-8600",
      "printers": [
        {
          "serialNumber": "SP011840000680",
          "productLine": "Studio"
        }
      ]
    },
    {
      "id": "site-58",
      "name": "Christian Tse Designs & Manufacturing, Inc.",
      "street": "904 S Alta Vista Ave",
      "city": "Monrovia",
      "state": "CA",
      "zip": "91016",
      "country": "US",
      "latitude": 34.142299,
      "longitude": -118.0071821,
      "installations": 1,
      "productLines": 1,
      "priorityScore": 10,
      "priorityTier": "C",
      "hasShop": false,
      "hasStudio": true,
      "hasInnX": false,
      "contactName": "",
      "contactEmail": "",
      "contactPhone": "",
      "printers": [
        {
          "serialNumber": "SP011905001615",
          "productLine": "Studio"
        }
      ]
    },
    {
      "id": "site-59",
      "name": "Cimquest, Inc. - Demo",
      "street": "3434 US-22 West Suite 130",
      "city": "Branchburg",
      "state": "NJ",
      "zip": "8876",
      "country": "US",
      "latitude": 40.6099422,
      "longitude": -74.7108797,
      "installations": 1,
      "productLines": 1,
      "priorityScore": 10,
      "priorityTier": "C",
      "hasShop": false,
      "hasStudio": true,
      "hasInnX": false,
      "contactName": "Jimmy Barrera",
      "contactEmail": "jimmy.barrera@cimquest-inc.com",
      "contactPhone": "732-699-0400",
      "printers": [
        {
          "serialNumber": "SP011849001345",
          "productLine": "Studio"
        }
      ]
    },
    {
      "id": "site-60",
      "name": "CLARAPATH",
      "street": "3434 US-22 West Suite 130",
      "city": "Branchburg",
      "state": "NJ",
      "zip": "8876",
      "country": "US",
      "latitude": 40.6099422,
      "longitude": -74.7108797,
      "installations": 1,
      "productLines": 1,
      "priorityScore": 190,
      "priorityTier": "A",
      "hasShop": true,
      "hasStudio": false,
      "hasInnX": false,
      "contactName": "Robert Chen",
      "contactEmail": "rchen@clarapath.com",
      "contactPhone": "732-699-0400",
      "printers": [
        {
          "serialNumber": "DP742134000222",
          "productLine": "Shop"
        }
      ]
    },
    {
      "id": "site-61",
      "name": "Coherent Ceramics, Inc.",
      "street": "42433 Avenida Alvarado",
      "city": "Temecula",
      "state": "CA",
      "zip": "92590",
      "country": "US",
      "latitude": 33.5081257,
      "longitude": -117.1718898,
      "installations": 1,
      "productLines": 1,
      "priorityScore": 20,
      "priorityTier": "C",
      "hasShop": false,
      "hasStudio": false,
      "hasInnX": true,
      "contactName": "Bradley Erwin",
      "contactEmail": "bradley.erwin@coherent.com",
      "contactPhone": "(302) 454-8600 ex 339",
      "printers": [
        {
          "serialNumber": "INV-0231",
          "productLine": "InnX"
        }
      ]
    },
    {
      "id": "site-62",
      "name": "Collins Aerospace",
      "street": "910 Day Hill Road",
      "city": "Windsor",
      "state": "CT",
      "zip": "06095",
      "country": "US",
      "latitude": 41.8796089,
      "longitude": -72.6995799,
      "installations": 1,
      "productLines": 1,
      "priorityScore": 20,
      "priorityTier": "C",
      "hasShop": false,
      "hasStudio": true,
      "hasInnX": false,
      "contactName": "",
      "contactEmail": "",
      "contactPhone": "860-687-3475",
      "printers": [
        {
          "serialNumber": "SP012201009356",
          "productLine": "Studio"
        }
      ]
    },
    {
      "id": "site-63",
      "name": "Colorado School of Mines",
      "street": "1500 Illinois St, Golden",
      "city": "Golden",
      "state": "CO",
      "zip": "80401",
      "country": "US",
      "latitude": 39.7509057,
      "longitude": -105.2228095,
      "installations": 1,
      "productLines": 1,
      "priorityScore": 10,
      "priorityTier": "C",
      "hasShop": false,
      "hasStudio": true,
      "hasInnX": false,
      "contactName": "",
      "contactEmail": "",
      "contactPhone": "",
      "printers": [
        {
          "serialNumber": "SP011849001380",
          "productLine": "Studio"
        }
      ]
    },
    {
      "id": "site-64",
      "name": "Columbus Technical College",
      "street": "2076 Valleydale Terr",
      "city": "Birmingham",
      "state": "AL",
      "zip": "35244",
      "country": "US",
      "latitude": 33.3470475,
      "longitude": -86.7988801,
      "installations": 1,
      "productLines": 1,
      "priorityScore": 10,
      "priorityTier": "C",
      "hasShop": false,
      "hasStudio": true,
      "hasInnX": false,
      "contactName": "",
      "contactEmail": "",
      "contactPhone": "+1 800-851-3987 ext 9137",
      "printers": [
        {
          "serialNumber": "SP011911001663",
          "productLine": "Studio"
        }
      ]
    },
    {
      "id": "site-65",
      "name": "Continental Automotive Systems, Inc.",
      "street": "Attn:  Accounts Payable 165 N Arlington Hts Rd, Ste 101",
      "city": "Buffalo Grove",
      "state": "IL",
      "zip": "60089",
      "country": "US",
      "latitude": 42.1560235,
      "longitude": -87.9831814,
      "installations": 1,
      "productLines": 1,
      "priorityScore": 10,
      "priorityTier": "C",
      "hasShop": false,
      "hasStudio": true,
      "hasInnX": false,
      "contactName": "Dan Konsor",
      "contactEmail": "daniel.konsor@vitesco.com",
      "contactPhone": "8883082284",
      "printers": [
        {
          "serialNumber": "SP011842000787",
          "productLine": "Studio"
        }
      ]
    },
    {
      "id": "site-66",
      "name": "Copeland",
      "street": "1675 W Campbell Rd",
      "city": "Sidney",
      "state": "OH",
      "zip": "45365",
      "country": "US",
      "latitude": 40.2772789,
      "longitude": -84.1805581,
      "installations": 1,
      "productLines": 1,
      "priorityScore": 10,
      "priorityTier": "C",
      "hasShop": false,
      "hasStudio": true,
      "hasInnX": false,
      "contactName": "Brenner, Shane P [COMRES/HVACR AMER/SID]",
      "contactEmail": "shane.brenner@copeland.com",
      "contactPhone": "",
      "printers": [
        {
          "serialNumber": "SP012006006254",
          "productLine": "Studio"
        }
      ]
    },
    {
      "id": "site-67",
      "name": "COVIDIEN NORTH HAVEN",
      "street": "60 Middle Town Ave Mail Stop # 35",
      "city": "North Haven",
      "state": "CT",
      "zip": "6473",
      "country": "US",
      "latitude": 41.3395654,
      "longitude": -72.8658827,
      "installations": 1,
      "productLines": 1,
      "priorityScore": 10,
      "priorityTier": "C",
      "hasShop": false,
      "hasStudio": true,
      "hasInnX": false,
      "contactName": "Clippinger, Aaron",
      "contactEmail": "aaron.clippinger@medtronic.com",
      "contactPhone": "+1 763-514-4000",
      "printers": [
        {
          "serialNumber": "SP011851001529",
          "productLine": "Studio"
        }
      ]
    },
    {
      "id": "site-68",
      "name": "Cummins",
      "street": "",
      "city": "Columbus",
      "state": "IN",
      "zip": "47202",
      "country": "US",
      "latitude": 39.2,
      "longitude": -85.92,
      "installations": 1,
      "productLines": 1,
      "priorityScore": 10,
      "priorityTier": "C",
      "hasShop": false,
      "hasStudio": true,
      "hasInnX": false,
      "contactName": "Carlos Rodriguez",
      "contactEmail": "c.rodriguez@cummins.com",
      "contactPhone": "1 (812) 377-5000",
      "printers": [
        {
          "serialNumber": "SP012224000121",
          "productLine": "Studio"
        }
      ]
    },
    {
      "id": "site-69",
      "name": "Cummins, Inc.",
      "street": "3200 Sheridan Road",
      "city": "Kenosha",
      "state": "WI",
      "zip": "53140",
      "country": "US",
      "latitude": 42.6084396,
      "longitude": -87.8229569,
      "installations": 1,
      "productLines": 1,
      "priorityScore": 10,
      "priorityTier": "C",
      "hasShop": false,
      "hasStudio": true,
      "hasInnX": false,
      "contactName": "Carlos Rodriguez",
      "contactEmail": "c.rodriguez@cummins.com",
      "contactPhone": "(414) 409-3290",
      "printers": [
        {
          "serialNumber": "SP012215009752",
          "productLine": "Studio"
        }
      ]
    },
    {
      "id": "site-70",
      "name": "Daycraft Weapon Systems",
      "street": "1497 E Baseline Rd STE 100",
      "city": "Gilbert",
      "state": "AZ",
      "zip": "85042",
      "country": "US",
      "latitude": 33.3766667,
      "longitude": -111.7999002,
      "installations": 1,
      "productLines": 1,
      "priorityScore": 15,
      "priorityTier": "C",
      "hasShop": true,
      "hasStudio": false,
      "hasInnX": false,
      "contactName": "Dan McCabe",
      "contactEmail": "d.mccabe@daycraftsystems.com",
      "contactPhone": "",
      "printers": [
        {
          "serialNumber": "DP742111000166",
          "productLine": "Shop"
        }
      ]
    },
    {
      "id": "site-71",
      "name": "Daytona State College",
      "street": "1770 Technology Blvd",
      "city": "Daytona Beach",
      "state": "FL",
      "zip": "32117",
      "country": "US",
      "latitude": 29.2320834,
      "longitude": -81.0989432,
      "installations": 1,
      "productLines": 1,
      "priorityScore": 20,
      "priorityTier": "C",
      "hasShop": false,
      "hasStudio": false,
      "hasInnX": true,
      "contactName": "Dante Leon",
      "contactEmail": "dante.leon@daytonastate.edu",
      "contactPhone": "(386) 506-4153",
      "printers": [
        {
          "serialNumber": "IV-0144",
          "productLine": "InnX"
        }
      ]
    },
    {
      "id": "site-72",
      "name": "Deer Park Dow Center",
      "street": "319 South First Street",
      "city": "Temple",
      "state": "TX",
      "zip": "76504",
      "country": "US",
      "latitude": 31.0931361,
      "longitude": -97.3432644,
      "installations": 1,
      "productLines": 1,
      "priorityScore": 20,
      "priorityTier": "C",
      "hasShop": false,
      "hasStudio": true,
      "hasInnX": false,
      "contactName": "Stafford, David",
      "contactEmail": "dstafford1@dow.com",
      "contactPhone": "(254) 742-2050",
      "printers": [
        {
          "serialNumber": "SP011942004896",
          "productLine": "Studio"
        }
      ]
    },
    {
      "id": "site-73",
      "name": "Diman Regional Vocational High School",
      "street": "239 Western Ave",
      "city": "Essex",
      "state": "MA",
      "zip": "01929",
      "country": "US",
      "latitude": 42.6229827,
      "longitude": -70.8170293,
      "installations": 1,
      "productLines": 1,
      "priorityScore": 60,
      "priorityTier": "A",
      "hasShop": false,
      "hasStudio": true,
      "hasInnX": false,
      "contactName": "",
      "contactEmail": "",
      "contactPhone": "",
      "printers": [
        {
          "serialNumber": "SP011845001111",
          "productLine": "Studio"
        }
      ]
    },
    {
      "id": "site-74",
      "name": "Dixie Iron Works LTD.",
      "street": "319 South First Street",
      "city": "Temple",
      "state": "TX",
      "zip": "76504",
      "country": "US",
      "latitude": 31.0931361,
      "longitude": -97.3432644,
      "installations": 1,
      "productLines": 1,
      "priorityScore": 60,
      "priorityTier": "A",
      "hasShop": true,
      "hasStudio": false,
      "hasInnX": false,
      "contactName": "Zachary Meaux",
      "contactEmail": "zmeaux@diwmsi.com",
      "contactPhone": "(254) 742-2050",
      "printers": [
        {
          "serialNumber": "DP742211000277",
          "productLine": "Shop"
        }
      ]
    },
    {
      "id": "site-75",
      "name": "Dracolune LLC",
      "street": "Attn:  Accounts Payable 165 N Arlington Hts Rd, Ste 101",
      "city": "Buffalo Grove",
      "state": "IL",
      "zip": "60089",
      "country": "US",
      "latitude": 42.1560235,
      "longitude": -87.9831814,
      "installations": 1,
      "productLines": 1,
      "priorityScore": 60,
      "priorityTier": "A",
      "hasShop": false,
      "hasStudio": true,
      "hasInnX": false,
      "contactName": "",
      "contactEmail": "",
      "contactPhone": "",
      "printers": [
        {
          "serialNumber": "SP011943005093",
          "productLine": "Studio"
        }
      ]
    },
    {
      "id": "site-76",
      "name": "DSB Technologies",
      "street": "3330 Palmer Drive",
      "city": "Janesville",
      "state": "WI",
      "zip": "53546",
      "country": "US",
      "latitude": 42.6773613,
      "longitude": -88.9751882,
      "installations": 1,
      "productLines": 1,
      "priorityScore": 20,
      "priorityTier": "C",
      "hasShop": false,
      "hasStudio": false,
      "hasInnX": true,
      "contactName": "Deming, Steven",
      "contactEmail": "sdeming@dsbtech.com",
      "contactPhone": "(608) 373-2849",
      "printers": [
        {
          "serialNumber": "INV-250",
          "productLine": "InnX"
        }
      ]
    },
    {
      "id": "site-77",
      "name": "Duke University",
      "street": "2076 Valleydale Terr",
      "city": "Birmingham",
      "state": "AL",
      "zip": "35244",
      "country": "US",
      "latitude": 33.3470475,
      "longitude": -86.7988801,
      "installations": 1,
      "productLines": 1,
      "priorityScore": 20,
      "priorityTier": "C",
      "hasShop": false,
      "hasStudio": true,
      "hasInnX": false,
      "contactName": "",
      "contactEmail": "",
      "contactPhone": "",
      "printers": [
        {
          "serialNumber": "SP011851001534",
          "productLine": "Studio"
        }
      ]
    },
    {
      "id": "site-78",
      "name": "Dynamic Machine of Detroit - Terminated VAR DO NOT USE",
      "street": "1653 E Maple Rd",
      "city": "Troy",
      "state": "MI",
      "zip": "48083",
      "country": "US",
      "latitude": 42.5497263,
      "longitude": -83.1160158,
      "installations": 1,
      "productLines": 1,
      "priorityScore": 10,
      "priorityTier": "C",
      "hasShop": false,
      "hasStudio": true,
      "hasInnX": false,
      "contactName": "",
      "contactEmail": "",
      "contactPhone": "",
      "printers": [
        {
          "serialNumber": "SP011845001108",
          "productLine": "Studio"
        }
      ]
    },
    {
      "id": "site-79",
      "name": "East Stroudsburg University of PA",
      "street": "320 East 3rd Ave",
      "city": "Tarentum",
      "state": "PA",
      "zip": "15084",
      "country": "US",
      "latitude": 40.6014863,
      "longitude": -79.7519505,
      "installations": 1,
      "productLines": 1,
      "priorityScore": 40,
      "priorityTier": "B",
      "hasShop": false,
      "hasStudio": true,
      "hasInnX": false,
      "contactName": "",
      "contactEmail": "",
      "contactPhone": "1 (724) 230-7400",
      "printers": [
        {
          "serialNumber": "SP011905001619",
          "productLine": "Studio"
        }
      ]
    },
    {
      "id": "site-80",
      "name": "Eaton Corporation",
      "street": "2076 Valleydale Terrace",
      "city": "Birmingham",
      "state": "AL",
      "zip": "35244",
      "country": "US",
      "latitude": 33.3470475,
      "longitude": -86.7988801,
      "installations": 3,
      "productLines": 1,
      "priorityScore": 40,
      "priorityTier": "B",
      "hasShop": false,
      "hasStudio": true,
      "hasInnX": false,
      "contactName": "Lininger, Brian L",
      "contactEmail": "brianllininger@eaton.com",
      "contactPhone": "1 (888) 220-6293",
      "printers": [
        {
          "serialNumber": "SP011911001668",
          "productLine": "Studio"
        },
        {
          "serialNumber": "SP011912001684",
          "productLine": "Studio"
        },
        {
          "serialNumber": "SP012209009606",
          "productLine": "Studio"
        }
      ]
    },
    {
      "id": "site-81",
      "name": "Eaton Corporation - Beltsville, MD",
      "street": "",
      "city": "Beltsville",
      "state": "MD",
      "zip": "20704",
      "country": "US",
      "latitude": 39.03,
      "longitude": -76.91,
      "installations": 1,
      "productLines": 1,
      "priorityScore": 10,
      "priorityTier": "C",
      "hasShop": false,
      "hasStudio": true,
      "hasInnX": false,
      "contactName": "",
      "contactEmail": "dmitrijcarder@eaton.com",
      "contactPhone": "",
      "printers": [
        {
          "serialNumber": "SP012002005916",
          "productLine": "Studio"
        }
      ]
    },
    {
      "id": "site-82",
      "name": "EMBRY- RIDDLE AERONAUTICAL UNIVERSITY- Daytona",
      "street": "1501 Bellevue Avenue",
      "city": "Daytona Beach",
      "state": "FL",
      "zip": "32114",
      "country": "US",
      "latitude": 29.1844217,
      "longitude": -81.0415524,
      "installations": 1,
      "productLines": 1,
      "priorityScore": 20,
      "priorityTier": "C",
      "hasShop": false,
      "hasStudio": false,
      "hasInnX": true,
      "contactName": "Bentley, Demi",
      "contactEmail": "bentleyd@erau.edu",
      "contactPhone": "",
      "printers": [
        {
          "serialNumber": "INV0291",
          "productLine": "InnX"
        }
      ]
    },
    {
      "id": "site-83",
      "name": "Embry-Riddle Aeronautical University",
      "street": "600 South Clyde Morris Boulevard",
      "city": "Daytona Beach",
      "state": "FL",
      "zip": "32114",
      "country": "US",
      "latitude": 29.1877614,
      "longitude": -81.0510562,
      "installations": 1,
      "productLines": 1,
      "priorityScore": 20,
      "priorityTier": "C",
      "hasShop": false,
      "hasStudio": false,
      "hasInnX": true,
      "contactName": "Zhang, Wenhao",
      "contactEmail": "zhangw7@my.erau.edu",
      "contactPhone": "(386) 226-3736",
      "printers": [
        {
          "serialNumber": "IV0119",
          "productLine": "InnX"
        }
      ]
    },
    {
      "id": "site-84",
      "name": "EMD/AFC Maintenance Machine Shop & Support",
      "street": "910 Day Hill Road",
      "city": "Windsor",
      "state": "CT",
      "zip": "06095",
      "country": "US",
      "latitude": 41.8796089,
      "longitude": -72.6995799,
      "installations": 1,
      "productLines": 1,
      "priorityScore": 20,
      "priorityTier": "C",
      "hasShop": false,
      "hasStudio": true,
      "hasInnX": false,
      "contactName": "Singh, Ajay",
      "contactEmail": "ajay.singh@nyct.com",
      "contactPhone": "860-687-3475",
      "printers": [
        {
          "serialNumber": "SP012033007146",
          "productLine": "Studio"
        }
      ]
    },
    {
      "id": "site-85",
      "name": "Emerson Rosemount, Inc.",
      "street": "8000 West Florissant Avenue",
      "city": "St. Louis",
      "state": "MO",
      "zip": "63136",
      "country": "US",
      "latitude": 38.731997,
      "longitude": -90.278525,
      "installations": 1,
      "productLines": 1,
      "priorityScore": 10,
      "priorityTier": "C",
      "hasShop": false,
      "hasStudio": true,
      "hasInnX": false,
      "contactName": "Ladd, Robert R [EMR/MSOL/CHAN]",
      "contactEmail": "robert.ladd@emerson.com",
      "contactPhone": "9529495064",
      "printers": [
        {
          "serialNumber": "SP011932003795",
          "productLine": "Studio"
        }
      ]
    },
    {
      "id": "site-86",
      "name": "Encore Medical, LP d/b/a DJO Global",
      "street": "319 South First Street",
      "city": "Temple",
      "state": "TX",
      "zip": "76504",
      "country": "US",
      "latitude": 31.0931361,
      "longitude": -97.3432644,
      "installations": 1,
      "productLines": 1,
      "priorityScore": 10,
      "priorityTier": "C",
      "hasShop": true,
      "hasStudio": false,
      "hasInnX": false,
      "contactName": "Connor Brooks",
      "contactEmail": "connor.brooks@enovis.com",
      "contactPhone": "(254) 742-2050",
      "printers": [
        {
          "serialNumber": "DP742134000212",
          "productLine": "Shop"
        }
      ]
    },
    {
      "id": "site-87",
      "name": "EPTAM Plastics Inc",
      "street": "2 Riverside Business Park",
      "city": "Northfield",
      "state": "NH",
      "zip": "03276",
      "country": "US",
      "latitude": 43.4501992,
      "longitude": -71.5510185,
      "installations": 2,
      "productLines": 1,
      "priorityScore": 30,
      "priorityTier": "B",
      "hasShop": false,
      "hasStudio": false,
      "hasInnX": true,
      "contactName": "Haley Laliberte",
      "contactEmail": "hlaliberte@eptam.com",
      "contactPhone": "+1 603-286-8009",
      "printers": [
        {
          "serialNumber": "INV-0257",
          "productLine": "InnX"
        },
        {
          "serialNumber": "INV-0266",
          "productLine": "InnX"
        }
      ]
    },
    {
      "id": "site-88",
      "name": "Fast Radius, Inc.",
      "street": "113 N May St.",
      "city": "Chicago",
      "state": "IL",
      "zip": "60607",
      "country": "US",
      "latitude": 41.8835586,
      "longitude": -87.6551748,
      "installations": 1,
      "productLines": 1,
      "priorityScore": 10,
      "priorityTier": "C",
      "hasShop": false,
      "hasStudio": true,
      "hasInnX": false,
      "contactName": "",
      "contactEmail": "",
      "contactPhone": "2487635559",
      "printers": [
        {
          "serialNumber": "SP011844001004",
          "productLine": "Studio"
        }
      ]
    },
    {
      "id": "site-89",
      "name": "First Solar, Inc.",
      "street": "910 Day Hill Road",
      "city": "Windsor",
      "state": "CT",
      "zip": "06095",
      "country": "US",
      "latitude": 41.8796089,
      "longitude": -72.6995799,
      "installations": 1,
      "productLines": 1,
      "priorityScore": 10,
      "priorityTier": "C",
      "hasShop": false,
      "hasStudio": true,
      "hasInnX": false,
      "contactName": "",
      "contactEmail": "",
      "contactPhone": "",
      "printers": [
        {
          "serialNumber": "SP012215009766",
          "productLine": "Studio"
        }
      ]
    },
    {
      "id": "site-90",
      "name": "Fluor Marine Propulsion LLC",
      "street": "3434 US-22 West Suite 130",
      "city": "Branchburg",
      "state": "NJ",
      "zip": "8876",
      "country": "US",
      "latitude": 40.6099422,
      "longitude": -74.7108797,
      "installations": 1,
      "productLines": 1,
      "priorityScore": 10,
      "priorityTier": "C",
      "hasShop": false,
      "hasStudio": true,
      "hasInnX": false,
      "contactName": "Leveillee, Jeff",
      "contactEmail": "jeff.leveillee@unnpp.gov",
      "contactPhone": "732-699-0400",
      "printers": [
        {
          "serialNumber": "SP011933004054",
          "productLine": "Studio"
        }
      ]
    },
    {
      "id": "site-91",
      "name": "Foothill College S&R",
      "street": "2065 Martin Avenue #103",
      "city": "Santa Clara",
      "state": "CA",
      "zip": "95050",
      "country": "US",
      "latitude": 37.3668431,
      "longitude": -121.9613018,
      "installations": 1,
      "productLines": 1,
      "priorityScore": 20,
      "priorityTier": "C",
      "hasShop": false,
      "hasStudio": true,
      "hasInnX": false,
      "contactName": "",
      "contactEmail": "",
      "contactPhone": "4084866000",
      "printers": [
        {
          "serialNumber": "SP012208009570",
          "productLine": "Studio"
        }
      ]
    },
    {
      "id": "site-92",
      "name": "FORD CONSTRUCTION BLDG & ENVIRONMTL",
      "street": "1 American Rd",
      "city": "Dearborn",
      "state": "MI",
      "zip": "48126",
      "country": "US",
      "latitude": 42.3163021,
      "longitude": -83.2102687,
      "installations": 1,
      "productLines": 1,
      "priorityScore": 20,
      "priorityTier": "C",
      "hasShop": false,
      "hasStudio": true,
      "hasInnX": false,
      "contactName": "",
      "contactEmail": "",
      "contactPhone": "1 (313) 322-3000",
      "printers": [
        {
          "serialNumber": "SP012138008772",
          "productLine": "Studio"
        }
      ]
    },
    {
      "id": "site-93",
      "name": "Ford Motor Company",
      "street": "1 American Rd",
      "city": "Dearborn",
      "state": "MI",
      "zip": "48126",
      "country": "US",
      "latitude": 42.3163021,
      "longitude": -83.2102687,
      "installations": 1,
      "productLines": 1,
      "priorityScore": 20,
      "priorityTier": "C",
      "hasShop": false,
      "hasStudio": true,
      "hasInnX": false,
      "contactName": "Bai, Yun",
      "contactEmail": "ybai22@ford.com",
      "contactPhone": "1 (313) 322-3000",
      "printers": [
        {
          "serialNumber": "SP011822000273",
          "productLine": "Studio"
        }
      ]
    },
    {
      "id": "site-94",
      "name": "Ford Motor Company",
      "street": "Attn:  Accounts Payable 165 N Arlington Hts Rd, Ste 101",
      "city": "Buffalo Grove",
      "state": "IL",
      "zip": "60089",
      "country": "US",
      "latitude": 42.1560235,
      "longitude": -87.9831814,
      "installations": 2,
      "productLines": 1,
      "priorityScore": 20,
      "priorityTier": "C",
      "hasShop": false,
      "hasStudio": true,
      "hasInnX": false,
      "contactName": "Bai, Yun",
      "contactEmail": "ybai22@ford.com",
      "contactPhone": "1 (313) 322-3000",
      "printers": [
        {
          "serialNumber": "SP012006006245",
          "productLine": "Studio"
        },
        {
          "serialNumber": "SP012033007115",
          "productLine": "Studio"
        }
      ]
    },
    {
      "id": "site-95",
      "name": "Ford Motor Company Dearborn Truck Plant  Body Shop",
      "street": "Attn:  Accounts Payable 165 N Arlington Hts Rd, Ste 101",
      "city": "Buffalo Grove",
      "state": "IL",
      "zip": "60089",
      "country": "US",
      "latitude": 42.1560235,
      "longitude": -87.9831814,
      "installations": 1,
      "productLines": 1,
      "priorityScore": 20,
      "priorityTier": "C",
      "hasShop": false,
      "hasStudio": true,
      "hasInnX": false,
      "contactName": "",
      "contactEmail": "",
      "contactPhone": "8883082284",
      "printers": [
        {
          "serialNumber": "SP012006006247",
          "productLine": "Studio"
        }
      ]
    },
    {
      "id": "site-96",
      "name": "Freeform Technologies, LLC",
      "street": "127 Industry Boulevard",
      "city": "Irwin",
      "state": "PA",
      "zip": "15642",
      "country": "US",
      "latitude": 40.3185049,
      "longitude": -79.6762478,
      "installations": 3,
      "productLines": 2,
      "priorityScore": 65,
      "priorityTier": "A",
      "hasShop": true,
      "hasStudio": false,
      "hasInnX": true,
      "contactName": "Nathan Higgins",
      "contactEmail": "nhiggins@freeformtech.com",
      "contactPhone": "814.834.7927",
      "printers": [
        {
          "serialNumber": "DP742318000326",
          "productLine": "Shop"
        },
        {
          "serialNumber": "INV - 0132",
          "productLine": "InnX"
        },
        {
          "serialNumber": "INV - 0135",
          "productLine": "InnX"
        }
      ]
    },
    {
      "id": "site-97",
      "name": "Freeform Technologies, LLC",
      "street": "180 Environmental Drive",
      "city": "Saint Marys",
      "state": "PA",
      "zip": "15857",
      "country": "US",
      "latitude": 41.426075,
      "longitude": -78.5335008,
      "installations": 6,
      "productLines": 1,
      "priorityScore": 65,
      "priorityTier": "A",
      "hasShop": true,
      "hasStudio": false,
      "hasInnX": false,
      "contactName": "Nathan Higgins",
      "contactEmail": "nhiggins@freeformtech.com",
      "contactPhone": "814.834.7927",
      "printers": [
        {
          "serialNumber": "DP742134000209",
          "productLine": "Shop"
        },
        {
          "serialNumber": "DP742113000178",
          "productLine": "Shop"
        },
        {
          "serialNumber": "DP742113000179",
          "productLine": "Shop"
        },
        {
          "serialNumber": "DP742102000151",
          "productLine": "Shop"
        },
        {
          "serialNumber": "DP742102000148",
          "productLine": "Shop"
        },
        {
          "serialNumber": "DP742211000280",
          "productLine": "Shop"
        }
      ]
    },
    {
      "id": "site-98",
      "name": "GE Aerospace dba GE Aerospace Research",
      "street": "One Research Circle - ES-121",
      "city": "Niskayuna",
      "state": "NY",
      "zip": "12309",
      "country": "US",
      "latitude": 42.8255827,
      "longitude": -73.8793366,
      "installations": 1,
      "productLines": 1,
      "priorityScore": 20,
      "priorityTier": "C",
      "hasShop": false,
      "hasStudio": false,
      "hasInnX": true,
      "contactName": "Alberts, William",
      "contactEmail": "alberts@ge.com",
      "contactPhone": "(518) 387-5429",
      "printers": [
        {
          "serialNumber": "IV-0118",
          "productLine": "InnX"
        }
      ]
    },
    {
      "id": "site-99",
      "name": "General Dynamics",
      "street": "3434 US-22 West Suite 130",
      "city": "Branchburg",
      "state": "NJ",
      "zip": "8876",
      "country": "US",
      "latitude": 40.6099422,
      "longitude": -74.7108797,
      "installations": 1,
      "productLines": 1,
      "priorityScore": 20,
      "priorityTier": "C",
      "hasShop": false,
      "hasStudio": true,
      "hasInnX": false,
      "contactName": "Michael.Fatovic@gd-ms.com",
      "contactEmail": "michael.fatovic@gd-ms.com",
      "contactPhone": "732-699-0400",
      "printers": [
        {
          "serialNumber": "SP012225000170",
          "productLine": "Studio"
        }
      ]
    },
    {
      "id": "site-100",
      "name": "General Motors Global Technical Center",
      "street": "404 E. 10 Mile Road Suite 150",
      "city": "Pleasant Ridge",
      "state": "MI",
      "zip": "48069-1201",
      "country": "US",
      "latitude": 42.4749814,
      "longitude": -83.1347323,
      "installations": 1,
      "productLines": 1,
      "priorityScore": 20,
      "priorityTier": "C",
      "hasShop": false,
      "hasStudio": true,
      "hasInnX": false,
      "contactName": "",
      "contactEmail": "",
      "contactPhone": "",
      "printers": [
        {
          "serialNumber": "SP011912001694",
          "productLine": "Studio"
        }
      ]
    },
    {
      "id": "site-101",
      "name": "Georgia Institute of Technology",
      "street": "2076 Valleydale Terr",
      "city": "Birmingham",
      "state": "AL",
      "zip": "35244",
      "country": "US",
      "latitude": 33.3470475,
      "longitude": -86.7988801,
      "installations": 1,
      "productLines": 1,
      "priorityScore": 20,
      "priorityTier": "C",
      "hasShop": false,
      "hasStudio": true,
      "hasInnX": false,
      "contactName": "",
      "contactEmail": "",
      "contactPhone": "",
      "printers": [
        {
          "serialNumber": "SP012006006253",
          "productLine": "Studio"
        }
      ]
    },
    {
      "id": "site-102",
      "name": "Georgia Quick Start",
      "street": "2076 Valleydale Terr",
      "city": "Birmingham",
      "state": "AL",
      "zip": "35244",
      "country": "US",
      "latitude": 33.3470475,
      "longitude": -86.7988801,
      "installations": 1,
      "productLines": 1,
      "priorityScore": 10,
      "priorityTier": "C",
      "hasShop": false,
      "hasStudio": true,
      "hasInnX": false,
      "contactName": "",
      "contactEmail": "",
      "contactPhone": "",
      "printers": [
        {
          "serialNumber": "SP011845001117",
          "productLine": "Studio"
        }
      ]
    },
    {
      "id": "site-103",
      "name": "Gillette College",
      "street": "",
      "city": "Houston",
      "state": "TX",
      "zip": "80020",
      "country": "US",
      "latitude": 29.7600771,
      "longitude": -95.3701108,
      "installations": 1,
      "productLines": 1,
      "priorityScore": 10,
      "priorityTier": "C",
      "hasShop": false,
      "hasStudio": true,
      "hasInnX": false,
      "contactName": "",
      "contactEmail": "",
      "contactPhone": "",
      "printers": [
        {
          "serialNumber": "SP011943005066",
          "productLine": "Studio"
        }
      ]
    },
    {
      "id": "site-104",
      "name": "GKN Powders - Hoeganaes",
      "street": "1001 Taylors lane",
      "city": "Cinnaminson",
      "state": "NJ",
      "zip": "08077-2017",
      "country": "US",
      "latitude": 40.0211663,
      "longitude": -74.9883828,
      "installations": 1,
      "productLines": 1,
      "priorityScore": 20,
      "priorityTier": "C",
      "hasShop": false,
      "hasStudio": false,
      "hasInnX": true,
      "contactName": "Kerri Horvay",
      "contactEmail": "kerri.horvay@hoeganaes.com",
      "contactPhone": "(856) 303-2714",
      "printers": [
        {
          "serialNumber": "INV-0214",
          "productLine": "InnX"
        }
      ]
    },
    {
      "id": "site-105",
      "name": "GKN Sinter Metals",
      "street": "",
      "city": "",
      "state": "",
      "zip": "",
      "country": "US",
      "latitude": 38.7945952,
      "longitude": -106.5348379,
      "installations": 1,
      "productLines": 1,
      "priorityScore": 20,
      "priorityTier": "C",
      "hasShop": false,
      "hasStudio": false,
      "hasInnX": true,
      "contactName": "",
      "contactEmail": "",
      "contactPhone": "(248) 371-0800",
      "printers": [
        {
          "serialNumber": "018.0154",
          "productLine": "InnX"
        }
      ]
    },
    {
      "id": "site-106",
      "name": "Global Tungsten & Powder Corp",
      "street": "1 Hawes Street",
      "city": "Towanda",
      "state": "PA",
      "zip": "18848",
      "country": "US",
      "latitude": 41.7863123,
      "longitude": -76.446152,
      "installations": 1,
      "productLines": 1,
      "priorityScore": 20,
      "priorityTier": "C",
      "hasShop": false,
      "hasStudio": false,
      "hasInnX": true,
      "contactName": "Prough Kevin",
      "contactEmail": "kevin.prough@globaltungsten.com",
      "contactPhone": "(570) 268-5293",
      "printers": [
        {
          "serialNumber": "IV-0151",
          "productLine": "InnX"
        }
      ]
    },
    {
      "id": "site-107",
      "name": "GoEngineer Corporate - Demo-Terminated VAR",
      "street": "1787 East Fort Union Blvd Suite 200",
      "city": "Salt Lake City",
      "state": "UT",
      "zip": "84121",
      "country": "US",
      "latitude": 40.6250647,
      "longitude": -111.8406221,
      "installations": 2,
      "productLines": 1,
      "priorityScore": 20,
      "priorityTier": "C",
      "hasShop": false,
      "hasStudio": true,
      "hasInnX": false,
      "contactName": "",
      "contactEmail": "",
      "contactPhone": "",
      "printers": [
        {
          "serialNumber": "SP011933004057",
          "productLine": "Studio"
        },
        {
          "serialNumber": "SP011838000579",
          "productLine": "Studio"
        }
      ]
    },
    {
      "id": "site-108",
      "name": "Gosiger Machine Tools - Demo",
      "street": "108 McDonough Street",
      "city": "Dayton",
      "state": "OH",
      "zip": "45402",
      "country": "US",
      "latitude": 39.7574433,
      "longitude": -84.2094347,
      "installations": 1,
      "productLines": 1,
      "priorityScore": 10,
      "priorityTier": "C",
      "hasShop": false,
      "hasStudio": true,
      "hasInnX": false,
      "contactName": "",
      "contactEmail": "",
      "contactPhone": "",
      "printers": [
        {
          "serialNumber": "SP011845001115",
          "productLine": "Studio"
        }
      ]
    },
    {
      "id": "site-109",
      "name": "Griner Engi-Bloomington",
      "street": "2500 n curry pike",
      "city": "Bloomington",
      "state": "IN",
      "zip": "47404",
      "country": "US",
      "latitude": 39.1873732,
      "longitude": -86.582552,
      "installations": 1,
      "productLines": 1,
      "priorityScore": 10,
      "priorityTier": "C",
      "hasShop": false,
      "hasStudio": true,
      "hasInnX": false,
      "contactName": "",
      "contactEmail": "jack@willowriverconsulting.com",
      "contactPhone": "8123275979",
      "printers": [
        {
          "serialNumber": "SP011842000847",
          "productLine": "Studio"
        }
      ]
    },
    {
      "id": "site-110",
      "name": "GTCC Center for Advance Manufacturing",
      "street": "2076 Valleydale Terr",
      "city": "Birmingham",
      "state": "AL",
      "zip": "35244",
      "country": "US",
      "latitude": 33.3470475,
      "longitude": -86.7988801,
      "installations": 1,
      "productLines": 1,
      "priorityScore": 10,
      "priorityTier": "C",
      "hasShop": false,
      "hasStudio": true,
      "hasInnX": false,
      "contactName": "",
      "contactEmail": "",
      "contactPhone": "",
      "printers": [
        {
          "serialNumber": "SP011849001383",
          "productLine": "Studio"
        }
      ]
    },
    {
      "id": "site-111",
      "name": "Gulf Organisation for Research and Development  (GORD)",
      "street": "333 Three D Systems Circle",
      "city": "Rock Hill",
      "state": "SC",
      "zip": "29730",
      "country": "US",
      "latitude": 34.926629,
      "longitude": -81.0142178,
      "installations": 1,
      "productLines": 1,
      "priorityScore": 20,
      "priorityTier": "C",
      "hasShop": false,
      "hasStudio": true,
      "hasInnX": false,
      "contactName": "Anil Pedhadia",
      "contactEmail": "anil@3d-me.com",
      "contactPhone": "+971 4 4433853",
      "printers": [
        {
          "serialNumber": "SP012203009419",
          "productLine": "Studio"
        }
      ]
    },
    {
      "id": "site-112",
      "name": "Gulfstream Aerospace Corp.",
      "street": "20 Harmony Ct.",
      "city": "Jasper",
      "state": "GA",
      "zip": "30143",
      "country": "US",
      "latitude": 34.4315665,
      "longitude": -84.4329752,
      "installations": 1,
      "productLines": 1,
      "priorityScore": 20,
      "priorityTier": "C",
      "hasShop": false,
      "hasStudio": true,
      "hasInnX": false,
      "contactName": "Franzel, Garrett",
      "contactEmail": "garrett.franzel@gulfstream.com",
      "contactPhone": "1 (678) 302-7076",
      "printers": [
        {
          "serialNumber": "SP012204009453",
          "productLine": "Studio"
        }
      ]
    },
    {
      "id": "site-113",
      "name": "Hi-Vol Products",
      "street": "12955 Inkster Road",
      "city": "Livonia",
      "state": "MI",
      "zip": "48150",
      "country": "US",
      "latitude": 42.3810577,
      "longitude": -83.315029,
      "installations": 1,
      "productLines": 1,
      "priorityScore": 10,
      "priorityTier": "C",
      "hasShop": false,
      "hasStudio": true,
      "hasInnX": false,
      "contactName": "",
      "contactEmail": "",
      "contactPhone": "",
      "printers": [
        {
          "serialNumber": "SP011845001114",
          "productLine": "Studio"
        }
      ]
    },
    {
      "id": "site-114",
      "name": "Hilliard Corp",
      "street": "3434 US-22 West Suite 130",
      "city": "Branchburg",
      "state": "NJ",
      "zip": "8876",
      "country": "US",
      "latitude": 40.6099422,
      "longitude": -74.7108797,
      "installations": 1,
      "productLines": 1,
      "priorityScore": 10,
      "priorityTier": "C",
      "hasShop": false,
      "hasStudio": true,
      "hasInnX": false,
      "contactName": "Brandon Theetge",
      "contactEmail": "btheetge@hilliardcorp.com",
      "contactPhone": "732-699-0400",
      "printers": [
        {
          "serialNumber": "SP012140008834",
          "productLine": "Studio"
        }
      ]
    },
    {
      "id": "site-115",
      "name": "Honeywell Aerospace - AZ",
      "street": "111 South 34th Street",
      "city": "Phoenix",
      "state": "AZ",
      "zip": "85034",
      "country": "US",
      "latitude": 33.4471269,
      "longitude": -112.0063107,
      "installations": 1,
      "productLines": 1,
      "priorityScore": 20,
      "priorityTier": "C",
      "hasShop": false,
      "hasStudio": false,
      "hasInnX": true,
      "contactName": "Natalya Kublik Crawford",
      "contactEmail": "nmohrkub@asu.edu",
      "contactPhone": "(601) 794-0103",
      "printers": [
        {
          "serialNumber": "INV-0271",
          "productLine": "InnX"
        }
      ]
    },
    {
      "id": "site-116",
      "name": "HONEYWELL FMT, LLC - MO (KCP)",
      "street": "2979 Triverton Pike Drive #200",
      "city": "Fitchburg",
      "state": "WI",
      "zip": "53711",
      "country": "US",
      "latitude": 43.0162557,
      "longitude": -89.4302359,
      "installations": 1,
      "productLines": 1,
      "priorityScore": 20,
      "priorityTier": "C",
      "hasShop": false,
      "hasStudio": true,
      "hasInnX": false,
      "contactName": "Kyle Gross",
      "contactEmail": "kgross1@kcnsc.doe.gov",
      "contactPhone": "608.210.2897",
      "printers": [
        {
          "serialNumber": "SP012208009572",
          "productLine": "Studio"
        }
      ]
    },
    {
      "id": "site-117",
      "name": "HowardUniversity",
      "street": "1244 Ritchie Hwy., Suite 10",
      "city": "Arnold",
      "state": "MD",
      "zip": "21012",
      "country": "US",
      "latitude": 39.0460417,
      "longitude": -76.5189599,
      "installations": 1,
      "productLines": 1,
      "priorityScore": 60,
      "priorityTier": "A",
      "hasShop": false,
      "hasStudio": true,
      "hasInnX": false,
      "contactName": "",
      "contactEmail": "",
      "contactPhone": "800 9-AMTEK-9",
      "printers": [
        {
          "serialNumber": "SP012225000171",
          "productLine": "Studio"
        }
      ]
    },
    {
      "id": "site-118",
      "name": "Hydraforce, Inc.",
      "street": "500 Barclay Boulevard",
      "city": "Lincolnshire",
      "state": "IL",
      "zip": "60069",
      "country": "US",
      "latitude": 42.1875636,
      "longitude": -87.9369345,
      "installations": 1,
      "productLines": 1,
      "priorityScore": 10,
      "priorityTier": "C",
      "hasShop": false,
      "hasStudio": true,
      "hasInnX": false,
      "contactName": "",
      "contactEmail": "",
      "contactPhone": "",
      "printers": [
        {
          "serialNumber": "SP011904001603",
          "productLine": "Studio"
        }
      ]
    },
    {
      "id": "site-119",
      "name": "Hyperion, Inc.",
      "street": "1400 Pioneer Street",
      "city": "Brea",
      "state": "CA",
      "zip": "92821",
      "country": "US",
      "latitude": 33.9228315,
      "longitude": -117.9197407,
      "installations": 1,
      "productLines": 1,
      "priorityScore": 10,
      "priorityTier": "C",
      "hasShop": false,
      "hasStudio": true,
      "hasInnX": false,
      "contactName": "",
      "contactEmail": "",
      "contactPhone": "",
      "printers": [
        {
          "serialNumber": "SP011909001653",
          "productLine": "Studio"
        }
      ]
    },
    {
      "id": "site-120",
      "name": "Idaho National Laboratory",
      "street": "1765 North Yellowstone Highway",
      "city": "Idaho Falls",
      "state": "ID",
      "zip": "83401",
      "country": "US",
      "latitude": 43.5139503,
      "longitude": -112.0158419,
      "installations": 1,
      "productLines": 1,
      "priorityScore": 20,
      "priorityTier": "C",
      "hasShop": false,
      "hasStudio": false,
      "hasInnX": true,
      "contactName": "Joshua Nicholas Zelina",
      "contactEmail": "joshua.zelina@inl.gov",
      "contactPhone": "(208) 526-8564",
      "printers": [
        {
          "serialNumber": "INV0281",
          "productLine": "InnX"
        }
      ]
    },
    {
      "id": "site-121",
      "name": "Immigration & Customs Enforcement",
      "street": "4991 Lake Brook Drive ## 300",
      "city": "Glen Allen",
      "state": "VA",
      "zip": "23060",
      "country": "US",
      "latitude": 37.6718567,
      "longitude": -77.5724173,
      "installations": 2,
      "productLines": 1,
      "priorityScore": 20,
      "priorityTier": "C",
      "hasShop": false,
      "hasStudio": true,
      "hasInnX": false,
      "contactName": "",
      "contactEmail": "",
      "contactPhone": "",
      "printers": [
        {
          "serialNumber": "SP011837000534",
          "productLine": "Studio"
        },
        {
          "serialNumber": "SP012147009148",
          "productLine": "Studio"
        }
      ]
    },
    {
      "id": "site-122",
      "name": "Impac Systems",
      "street": "1311 Broadway Street",
      "city": "Alexandria",
      "state": "MN",
      "zip": "56308",
      "country": "US",
      "latitude": 45.8772797,
      "longitude": -95.3772286,
      "installations": 2,
      "productLines": 2,
      "priorityScore": 50,
      "priorityTier": "A",
      "hasShop": true,
      "hasStudio": true,
      "hasInnX": false,
      "contactName": "Zach Kelley",
      "contactEmail": "zach.kelley@impacsystems.com",
      "contactPhone": "",
      "printers": [
        {
          "serialNumber": "DP742047000111",
          "productLine": "Shop"
        },
        {
          "serialNumber": "SP011912001690",
          "productLine": "Studio"
        }
      ]
    },
    {
      "id": "site-123",
      "name": "Indiana University",
      "street": "107 S Indiana Ave",
      "city": "Bloomington",
      "state": "IN",
      "zip": "47405",
      "country": "US",
      "latitude": 39.1661042,
      "longitude": -86.5252321,
      "installations": 1,
      "productLines": 1,
      "priorityScore": 20,
      "priorityTier": "C",
      "hasShop": false,
      "hasStudio": false,
      "hasInnX": true,
      "contactName": "Sohrabpoor, Hamed",
      "contactEmail": "hsohrab@iu.edu",
      "contactPhone": "(812) 856-7277",
      "printers": [
        {
          "serialNumber": "IV-0177",
          "productLine": "InnX"
        }
      ]
    },
    {
      "id": "site-124",
      "name": "Indicate Technologies Inc.",
      "street": "2065 Martin Avenue #103",
      "city": "Santa Clara",
      "state": "CA",
      "zip": "95050",
      "country": "US",
      "latitude": 37.3668431,
      "longitude": -121.9613018,
      "installations": 1,
      "productLines": 1,
      "priorityScore": 20,
      "priorityTier": "C",
      "hasShop": false,
      "hasStudio": true,
      "hasInnX": false,
      "contactName": "Peter Lin",
      "contactEmail": "plin@indicate1.com",
      "contactPhone": "4084866000",
      "printers": [
        {
          "serialNumber": "SP012006006249",
          "productLine": "Studio"
        }
      ]
    },
    {
      "id": "site-125",
      "name": "Indo-MIM Inc., USA",
      "street": "3902, SW 36th Street, Suite #101",
      "city": "San Antonio",
      "state": "TX",
      "zip": "78226",
      "country": "US",
      "latitude": 29.3906883,
      "longitude": -98.5678652,
      "installations": 3,
      "productLines": 2,
      "priorityScore": 60,
      "priorityTier": "A",
      "hasShop": true,
      "hasStudio": true,
      "hasInnX": false,
      "contactName": "Mukund Nagaraj",
      "contactEmail": "mukund.n@indo-mim.com",
      "contactPhone": "(210)-557-1594",
      "printers": [
        {
          "serialNumber": "DP742211000282",
          "productLine": "Shop"
        },
        {
          "serialNumber": "PP672029000105",
          "productLine": "Shop"
        },
        {
          "serialNumber": "SP011840000682",
          "productLine": "Studio"
        }
      ]
    },
    {
      "id": "site-126",
      "name": "INTEL CORPORATION",
      "street": "2200 Mission College Boulevard",
      "city": "Santa Clara",
      "state": "CA",
      "zip": "95054",
      "country": "US",
      "latitude": 37.3862051,
      "longitude": -121.9636636,
      "installations": 1,
      "productLines": 1,
      "priorityScore": 10,
      "priorityTier": "C",
      "hasShop": false,
      "hasStudio": true,
      "hasInnX": false,
      "contactName": "Dan Susman",
      "contactEmail": "danielx.john.susman@intel.com",
      "contactPhone": "+1 408-765-8080",
      "printers": [
        {
          "serialNumber": "SP012249000919",
          "productLine": "Studio"
        }
      ]
    },
    {
      "id": "site-127",
      "name": "IOWA STATE UNIVERSITY",
      "street": "1018 - 8th Street PMB 22",
      "city": "Boone",
      "state": "IA",
      "zip": "50036",
      "country": "US",
      "latitude": 42.0635198,
      "longitude": -93.8774694,
      "installations": 1,
      "productLines": 1,
      "priorityScore": 10,
      "priorityTier": "C",
      "hasShop": false,
      "hasStudio": true,
      "hasInnX": false,
      "contactName": "",
      "contactEmail": "cptkrotz@iastate.edu",
      "contactPhone": "515 598 2626",
      "printers": [
        {
          "serialNumber": "SP012206009499",
          "productLine": "Studio"
        }
      ]
    },
    {
      "id": "site-128",
      "name": "Jacobs Tech-Houston",
      "street": "404 E. 10 Mile Road Suite 150",
      "city": "Pleasant Ridge",
      "state": "MI",
      "zip": "48069-1201",
      "country": "US",
      "latitude": 42.4749814,
      "longitude": -83.1347323,
      "installations": 1,
      "productLines": 1,
      "priorityScore": 20,
      "priorityTier": "C",
      "hasShop": false,
      "hasStudio": true,
      "hasInnX": false,
      "contactName": "Shipman, Joe B. [Jacobs Technology, Inc.]",
      "contactEmail": "joe.b.shipman@nasa.gov",
      "contactPhone": "248-577-5100",
      "printers": [
        {
          "serialNumber": "SP011843000931",
          "productLine": "Studio"
        }
      ]
    },
    {
      "id": "site-129",
      "name": "John Zink Company LLC",
      "street": "11920 East Apache Street",
      "city": "Tulsa",
      "state": "OK",
      "zip": "74116",
      "country": "US",
      "latitude": 36.1897868,
      "longitude": -95.8446152,
      "installations": 1,
      "productLines": 1,
      "priorityScore": 10,
      "priorityTier": "C",
      "hasShop": false,
      "hasStudio": true,
      "hasInnX": false,
      "contactName": "Zach Langley",
      "contactEmail": "Zach.Langley@kes.global",
      "contactPhone": "1 (918) 234-1800",
      "printers": [
        {
          "serialNumber": "SP011905001635",
          "productLine": "Studio"
        }
      ]
    },
    {
      "id": "site-130",
      "name": "Johns Hopkins University - Biomedical",
      "street": "3434 US-22 West Suite 130",
      "city": "Branchburg",
      "state": "NJ",
      "zip": "8876",
      "country": "US",
      "latitude": 40.6099422,
      "longitude": -74.7108797,
      "installations": 1,
      "productLines": 1,
      "priorityScore": 10,
      "priorityTier": "C",
      "hasShop": false,
      "hasStudio": true,
      "hasInnX": false,
      "contactName": "",
      "contactEmail": "nnowick2@jh.edu",
      "contactPhone": "732-699-0400",
      "printers": [
        {
          "serialNumber": "SP012006006251",
          "productLine": "Studio"
        }
      ]
    },
    {
      "id": "site-131",
      "name": "Keio University",
      "street": "63 Third Avenue",
      "city": "Burlington",
      "state": "MA",
      "zip": "01803",
      "country": "US",
      "latitude": 42.4883564,
      "longitude": -71.227503,
      "installations": 1,
      "productLines": 1,
      "priorityScore": 10,
      "priorityTier": "C",
      "hasShop": false,
      "hasStudio": true,
      "hasInnX": false,
      "contactName": "",
      "contactEmail": "",
      "contactPhone": "",
      "printers": [
        {
          "serialNumber": "SP011845001116",
          "productLine": "Studio"
        }
      ]
    },
    {
      "id": "site-132",
      "name": "Kennametal Inc",
      "street": "1600 Technology Way",
      "city": "Latrobe",
      "state": "",
      "zip": "15650",
      "country": "US",
      "latitude": 40.2778448,
      "longitude": -79.3937458,
      "installations": 1,
      "productLines": 1,
      "priorityScore": 20,
      "priorityTier": "C",
      "hasShop": false,
      "hasStudio": false,
      "hasInnX": true,
      "contactName": "Michael Orange",
      "contactEmail": "michael.orange@kennametal.com",
      "contactPhone": "(412) 996-2424",
      "printers": [
        {
          "serialNumber": "IV-0150",
          "productLine": "InnX"
        }
      ]
    },
    {
      "id": "site-133",
      "name": "Kennametal Inc",
      "street": "1600 Technology Way",
      "city": "Latrobe",
      "state": "PA",
      "zip": "15650",
      "country": "US",
      "latitude": 40.2778448,
      "longitude": -79.3937458,
      "installations": 1,
      "productLines": 1,
      "priorityScore": 20,
      "priorityTier": "C",
      "hasShop": false,
      "hasStudio": false,
      "hasInnX": true,
      "contactName": "Michael Orange",
      "contactEmail": "michael.orange@kennametal.com",
      "contactPhone": "(412) 996-2424",
      "printers": [
        {
          "serialNumber": "IV-0124",
          "productLine": "InnX"
        }
      ]
    },
    {
      "id": "site-134",
      "name": "Keystone Advanced Innovations",
      "street": "3434 US-22 West Suite 130",
      "city": "Branchburg",
      "state": "NJ",
      "zip": "8876",
      "country": "US",
      "latitude": 40.6099422,
      "longitude": -74.7108797,
      "installations": 1,
      "productLines": 1,
      "priorityScore": 20,
      "priorityTier": "C",
      "hasShop": false,
      "hasStudio": true,
      "hasInnX": false,
      "contactName": "",
      "contactEmail": "nwinebrenner@keystoneadvancedinnovations.com",
      "contactPhone": "732-699-0400",
      "printers": [
        {
          "serialNumber": "SP012149009223",
          "productLine": "Studio"
        }
      ]
    },
    {
      "id": "site-135",
      "name": "Knight Global",
      "street": "2705 Commerce Parkway Attn:  Accounts Payable",
      "city": "Auburn Hills",
      "state": "MI",
      "zip": "48326",
      "country": "US",
      "latitude": 42.702075,
      "longitude": -83.2408727,
      "installations": 1,
      "productLines": 1,
      "priorityScore": 10,
      "priorityTier": "C",
      "hasShop": false,
      "hasStudio": true,
      "hasInnX": false,
      "contactName": "",
      "contactEmail": "",
      "contactPhone": "",
      "printers": [
        {
          "serialNumber": "SP011848001259",
          "productLine": "Studio"
        }
      ]
    },
    {
      "id": "site-136",
      "name": "Lancer Worldwide",
      "street": "63 Third Avenue",
      "city": "Burlington",
      "state": "MA",
      "zip": "01803",
      "country": "US",
      "latitude": 42.4883564,
      "longitude": -71.227503,
      "installations": 1,
      "productLines": 1,
      "priorityScore": 70,
      "priorityTier": "A",
      "hasShop": true,
      "hasStudio": false,
      "hasInnX": false,
      "contactName": "Mukund Nagaraj",
      "contactEmail": "mukund.n@indo-mim.com",
      "contactPhone": "(210)-557-1594",
      "printers": [
        {
          "serialNumber": "DP742134000210",
          "productLine": "Shop"
        }
      ]
    },
    {
      "id": "site-137",
      "name": "Lawrence Livermore National Laboratory",
      "street": "29250 Union City Blvd",
      "city": "Union City",
      "state": "CA",
      "zip": "94587",
      "country": "US",
      "latitude": 37.6095406,
      "longitude": -122.0825512,
      "installations": 1,
      "productLines": 1,
      "priorityScore": 30,
      "priorityTier": "B",
      "hasShop": false,
      "hasStudio": true,
      "hasInnX": false,
      "contactName": "Gonzalez, Joaquin Elias",
      "contactEmail": "gonzalez128@llnl.gov",
      "contactPhone": "",
      "printers": [
        {
          "serialNumber": "SP012033007116",
          "productLine": "Studio"
        }
      ]
    },
    {
      "id": "site-138",
      "name": "Lawrence Livermore National Laboratory",
      "street": "7000 East Ave",
      "city": "Livermore",
      "state": "CA",
      "zip": "94551",
      "country": "US",
      "latitude": 37.6805417,
      "longitude": -121.7055149,
      "installations": 2,
      "productLines": 1,
      "priorityScore": 30,
      "priorityTier": "B",
      "hasShop": false,
      "hasStudio": false,
      "hasInnX": true,
      "contactName": "Wei, Amanda Xin",
      "contactEmail": "wei9@llnl.gov",
      "contactPhone": "(925) 423-4993",
      "printers": [
        {
          "serialNumber": "0239",
          "productLine": "InnX"
        },
        {
          "serialNumber": "INV - 235",
          "productLine": "InnX"
        }
      ]
    },
    {
      "id": "site-139",
      "name": "Le Claire Manufacturing Co",
      "street": "2707 62nd Street Court",
      "city": "Bettendorf",
      "state": "IA",
      "zip": "52722",
      "country": "US",
      "latitude": 41.5505172,
      "longitude": -90.4444749,
      "installations": 1,
      "productLines": 1,
      "priorityScore": 15,
      "priorityTier": "C",
      "hasShop": true,
      "hasStudio": false,
      "hasInnX": false,
      "contactName": "Joseph Martinez",
      "contactEmail": "joseph.martinez@leclairemfg.com",
      "contactPhone": "1 (563) 332-6550",
      "printers": [
        {
          "serialNumber": "DP742213000287",
          "productLine": "Shop"
        }
      ]
    },
    {
      "id": "site-140",
      "name": "Lockheed Martin",
      "street": "4991 Lake Brook Drive ## 300",
      "city": "Glen Allen",
      "state": "VA",
      "zip": "23060",
      "country": "US",
      "latitude": 37.6718567,
      "longitude": -77.5724173,
      "installations": 1,
      "productLines": 1,
      "priorityScore": 15,
      "priorityTier": "C",
      "hasShop": false,
      "hasStudio": true,
      "hasInnX": false,
      "contactName": "Brandon Frech",
      "contactEmail": "bfrech@cimquest-inc.com",
      "contactPhone": "5086308065",
      "printers": [
        {
          "serialNumber": "SP011937004457",
          "productLine": "Studio"
        }
      ]
    },
    {
      "id": "site-141",
      "name": "MacLean-Fogg Component Solutions",
      "street": "Attn:  Accounts Payable 165 N Arlington Hts Rd, Ste 101",
      "city": "Buffalo Grove",
      "state": "IL",
      "zip": "60089",
      "country": "US",
      "latitude": 42.1560235,
      "longitude": -87.9831814,
      "installations": 1,
      "productLines": 1,
      "priorityScore": 15,
      "priorityTier": "C",
      "hasShop": false,
      "hasStudio": true,
      "hasInnX": false,
      "contactName": "",
      "contactEmail": "bmullins@hi-point.net",
      "contactPhone": "8883082284",
      "printers": [
        {
          "serialNumber": "SP011937004458",
          "productLine": "Studio"
        }
      ]
    },
    {
      "id": "site-142",
      "name": "Massachusetts Institute of Technology",
      "street": "PO Box 9169 accounts-payable@mit.edu",
      "city": "Cambridge",
      "state": "MA",
      "zip": "02139-9169",
      "country": "US",
      "latitude": 42.3666036,
      "longitude": -71.1056916,
      "installations": 1,
      "productLines": 1,
      "priorityScore": 10,
      "priorityTier": "C",
      "hasShop": false,
      "hasStudio": true,
      "hasInnX": false,
      "contactName": "",
      "contactEmail": "",
      "contactPhone": "",
      "printers": [
        {
          "serialNumber": "SP011844001029",
          "productLine": "Studio"
        }
      ]
    },
    {
      "id": "site-143",
      "name": "Medtronic Rice Creek Central",
      "street": "E-MAIL:  RS.USAP@Medtronic.com PO Box 778",
      "city": "Minneapolis",
      "state": "MN",
      "zip": "55440",
      "country": "US",
      "latitude": 44.97215,
      "longitude": -93.2343664,
      "installations": 1,
      "productLines": 1,
      "priorityScore": 10,
      "priorityTier": "C",
      "hasShop": false,
      "hasStudio": true,
      "hasInnX": false,
      "contactName": "",
      "contactEmail": "",
      "contactPhone": "763-514-4000",
      "printers": [
        {
          "serialNumber": "SP011848001257",
          "productLine": "Studio"
        }
      ]
    },
    {
      "id": "site-144",
      "name": "Memjet North Ryde Pty Ltd",
      "street": "63 Third Avenue",
      "city": "Burlington",
      "state": "MA",
      "zip": "01803",
      "country": "US",
      "latitude": 42.4883564,
      "longitude": -71.227503,
      "installations": 1,
      "productLines": 1,
      "priorityScore": 10,
      "priorityTier": "C",
      "hasShop": true,
      "hasStudio": false,
      "hasInnX": false,
      "contactName": "Steven Mueller",
      "contactEmail": "Steven.Mueller@memjet.com",
      "contactPhone": "",
      "printers": [
        {
          "serialNumber": "DP032012000004",
          "productLine": "Shop"
        }
      ]
    },
    {
      "id": "site-145",
      "name": "Metal Technology",
      "street": "173 Queen Avenue SE",
      "city": "Albany",
      "state": "OR",
      "zip": "97322",
      "country": "US",
      "latitude": 44.6251886,
      "longitude": -123.0858259,
      "installations": 1,
      "productLines": 1,
      "priorityScore": 10,
      "priorityTier": "C",
      "hasShop": false,
      "hasStudio": true,
      "hasInnX": false,
      "contactName": "",
      "contactEmail": "",
      "contactPhone": "",
      "printers": [
        {
          "serialNumber": "SP011848001258",
          "productLine": "Studio"
        }
      ]
    },
    {
      "id": "site-146",
      "name": "Microsoft Houston",
      "street": "319 South First Street",
      "city": "Temple",
      "state": "TX",
      "zip": "76504",
      "country": "US",
      "latitude": 31.0931361,
      "longitude": -97.3432644,
      "installations": 1,
      "productLines": 1,
      "priorityScore": 10,
      "priorityTier": "C",
      "hasShop": false,
      "hasStudio": true,
      "hasInnX": false,
      "contactName": "",
      "contactEmail": "",
      "contactPhone": "",
      "printers": [
        {
          "serialNumber": "SP012033007121",
          "productLine": "Studio"
        }
      ]
    },
    {
      "id": "site-147",
      "name": "Midmark Corporation",
      "street": "910 Day Hill Road",
      "city": "Windsor",
      "state": "CT",
      "zip": "06095",
      "country": "US",
      "latitude": 41.8796089,
      "longitude": -72.6995799,
      "installations": 1,
      "productLines": 1,
      "priorityScore": 10,
      "priorityTier": "C",
      "hasShop": false,
      "hasStudio": true,
      "hasInnX": false,
      "contactName": "",
      "contactEmail": "dpottkotter@midmark.com",
      "contactPhone": "860-687-3475",
      "printers": [
        {
          "serialNumber": "SP011845001109",
          "productLine": "Studio"
        }
      ]
    },
    {
      "id": "site-148",
      "name": "Milwaukee Tool",
      "street": "13135 West Lisbon Road",
      "city": "Brookefield",
      "state": "WI",
      "zip": "53005",
      "country": "US",
      "latitude": 43.0933267,
      "longitude": -88.0753594,
      "installations": 2,
      "productLines": 2,
      "priorityScore": 50,
      "priorityTier": "A",
      "hasShop": true,
      "hasStudio": true,
      "hasInnX": false,
      "contactName": "Horn, Mitchell",
      "contactEmail": "mitchell.horn@milwaukeetool.com",
      "contactPhone": "262-781-3600",
      "printers": [
        {
          "serialNumber": "DP732044000106",
          "productLine": "Shop"
        },
        {
          "serialNumber": "SP011850001443",
          "productLine": "Studio"
        }
      ]
    },
    {
      "id": "site-149",
      "name": "Mineral Area College",
      "street": "58 East South Street",
      "city": "Rossville",
      "state": "IN",
      "zip": "46065",
      "country": "US",
      "latitude": 40.416297,
      "longitude": -86.5927913,
      "installations": 1,
      "productLines": 1,
      "priorityScore": 30,
      "priorityTier": "B",
      "hasShop": false,
      "hasStudio": true,
      "hasInnX": false,
      "contactName": "",
      "contactEmail": "",
      "contactPhone": "1 (815) 942-4299",
      "printers": [
        {
          "serialNumber": "SP012246000888",
          "productLine": "Studio"
        }
      ]
    },
    {
      "id": "site-150",
      "name": "MIT - Mechanical Engineering",
      "street": "239 Western Ave",
      "city": "Essex",
      "state": "MA",
      "zip": "01929",
      "country": "US",
      "latitude": 42.6229827,
      "longitude": -70.8170293,
      "installations": 2,
      "productLines": 1,
      "priorityScore": 20,
      "priorityTier": "C",
      "hasShop": false,
      "hasStudio": true,
      "hasInnX": false,
      "contactName": "",
      "contactEmail": "",
      "contactPhone": "18887684550",
      "printers": [
        {
          "serialNumber": "SP012201009335",
          "productLine": "Studio"
        },
        {
          "serialNumber": "SP012322000378",
          "productLine": "Studio"
        }
      ]
    },
    {
      "id": "site-151",
      "name": "MIT - The Engine Accelerator",
      "street": "239 Western Ave",
      "city": "Essex",
      "state": "MA",
      "zip": "01929",
      "country": "US",
      "latitude": 42.6229827,
      "longitude": -70.8170293,
      "installations": 1,
      "productLines": 1,
      "priorityScore": 20,
      "priorityTier": "C",
      "hasShop": false,
      "hasStudio": true,
      "hasInnX": false,
      "contactName": "",
      "contactEmail": "",
      "contactPhone": "18887684550",
      "printers": [
        {
          "serialNumber": "SP011911001673",
          "productLine": "Studio"
        }
      ]
    },
    {
      "id": "site-152",
      "name": "MIT Lincoln Laboratory",
      "street": "4991 Lake Brook Drive ## 300",
      "city": "Glen Allen",
      "state": "VA",
      "zip": "23060",
      "country": "US",
      "latitude": 37.6718567,
      "longitude": -77.5724173,
      "installations": 1,
      "productLines": 1,
      "priorityScore": 20,
      "priorityTier": "C",
      "hasShop": false,
      "hasStudio": true,
      "hasInnX": false,
      "contactName": "Volpe, Andrew - 0009 - MITLL",
      "contactEmail": "andrew.volpe@ll.mit.edu",
      "contactPhone": "5086308065",
      "printers": [
        {
          "serialNumber": "SP011911001659",
          "productLine": "Studio"
        }
      ]
    },
    {
      "id": "site-153",
      "name": "MIT Lincoln Laboratory",
      "street": "207 East Ohio Street",
      "city": "Chicago",
      "state": "IL",
      "zip": "60611",
      "country": "US",
      "latitude": 41.8923952,
      "longitude": -87.6219111,
      "installations": 1,
      "productLines": 1,
      "priorityScore": 20,
      "priorityTier": "C",
      "hasShop": false,
      "hasStudio": true,
      "hasInnX": false,
      "contactName": "",
      "contactEmail": "",
      "contactPhone": "1 (312) 953-4479",
      "printers": [
        {
          "serialNumber": "SP011912001681",
          "productLine": "Studio"
        }
      ]
    },
    {
      "id": "site-154",
      "name": "MK Machine",
      "street": "208 Elizabeth Street",
      "city": "Hallsville",
      "state": "MO",
      "zip": "65255",
      "country": "US",
      "latitude": 39.1183479,
      "longitude": -92.216004,
      "installations": 1,
      "productLines": 1,
      "priorityScore": 15,
      "priorityTier": "C",
      "hasShop": true,
      "hasStudio": false,
      "hasInnX": false,
      "contactName": "Tyler Kemp",
      "contactEmail": "tyler.kemp@mkmachining.com",
      "contactPhone": "",
      "printers": [
        {
          "serialNumber": "DP742102000150",
          "productLine": "Shop"
        }
      ]
    },
    {
      "id": "site-155",
      "name": "MKS Instruments, Inc",
      "street": "3434 US-22 West Suite 130",
      "city": "Branchburg",
      "state": "NJ",
      "zip": "8876",
      "country": "US",
      "latitude": 40.6099422,
      "longitude": -74.7108797,
      "installations": 1,
      "productLines": 1,
      "priorityScore": 15,
      "priorityTier": "C",
      "hasShop": false,
      "hasStudio": true,
      "hasInnX": false,
      "contactName": "Maynard, Karyn",
      "contactEmail": "karyn.maynard@mksinst.com",
      "contactPhone": "732-699-0400",
      "printers": [
        {
          "serialNumber": "SP012033007117",
          "productLine": "Studio"
        }
      ]
    },
    {
      "id": "site-156",
      "name": "Moen Incorporated North Olmstead",
      "street": "Attn:  Accounts Payable P.O. Box 8022 USAAPINVOICE@MOEN.COM",
      "city": "North Olmsted",
      "state": "OH",
      "zip": "44070",
      "country": "US",
      "latitude": 41.4101205,
      "longitude": -81.9039908,
      "installations": 1,
      "productLines": 1,
      "priorityScore": 10,
      "priorityTier": "C",
      "hasShop": false,
      "hasStudio": true,
      "hasInnX": false,
      "contactName": "",
      "contactEmail": "",
      "contactPhone": "",
      "printers": [
        {
          "serialNumber": "SP011849001341",
          "productLine": "Studio"
        }
      ]
    },
    {
      "id": "site-157",
      "name": "Moshun LLC",
      "street": "228 Park Avenue South",
      "city": "New York",
      "state": "NY",
      "zip": "10003",
      "country": "US",
      "latitude": 40.7376675,
      "longitude": -73.9885894,
      "installations": 2,
      "productLines": 1,
      "priorityScore": 40,
      "priorityTier": "B",
      "hasShop": false,
      "hasStudio": true,
      "hasInnX": false,
      "contactName": "Jordan Gaulke",
      "contactEmail": "jgaulke@dearborntool.com",
      "contactPhone": "5082078666",
      "printers": [
        {
          "serialNumber": "SP011911001666",
          "productLine": "Studio"
        },
        {
          "serialNumber": "SP011911001669",
          "productLine": "Studio"
        }
      ]
    },
    {
      "id": "site-158",
      "name": "NASA-GLENN RESEARCH CENTER",
      "street": "21000 Brookpark Rd",
      "city": "Cleveland",
      "state": "OH",
      "zip": "44135",
      "country": "US",
      "latitude": 41.4160896,
      "longitude": -81.8582675,
      "installations": 1,
      "productLines": 1,
      "priorityScore": 20,
      "priorityTier": "C",
      "hasShop": false,
      "hasStudio": false,
      "hasInnX": true,
      "contactName": "Tuchfeld, Zachary J. [UNIVERSITIES SPACE RESEARCH ASSOCIATION]",
      "contactEmail": "zachary.j.tuchfeld@nasa.gov",
      "contactPhone": "(216) 433-5516",
      "printers": [
        {
          "serialNumber": "IV-0128",
          "productLine": "InnX"
        }
      ]
    },
    {
      "id": "site-159",
      "name": "NAV AIR 47G000D",
      "street": "1787 East Fort Union Blvd Suite 200",
      "city": "Salt Lake City",
      "state": "UT",
      "zip": "84121",
      "country": "US",
      "latitude": 40.6250647,
      "longitude": -111.8406221,
      "installations": 1,
      "productLines": 1,
      "priorityScore": 20,
      "priorityTier": "C",
      "hasShop": false,
      "hasStudio": true,
      "hasInnX": false,
      "contactName": "Mcgaha, Nicholas C CIV USN NAVAIRWPNSTA CHL CA",
      "contactEmail": "nicholas.c.mcgaha.civ@us.navy.mil",
      "contactPhone": "801.359.6100",
      "printers": [
        {
          "serialNumber": "SP011850001441",
          "productLine": "Studio"
        }
      ]
    },
    {
      "id": "site-160",
      "name": "Naval Air Warfare Center Weapons (NAWCWD)",
      "street": "",
      "city": "Newbury Park",
      "state": "CA",
      "zip": "",
      "country": "US",
      "latitude": 34.1805403,
      "longitude": -118.9070887,
      "installations": 1,
      "productLines": 1,
      "priorityScore": 10,
      "priorityTier": "C",
      "hasShop": false,
      "hasStudio": true,
      "hasInnX": false,
      "contactName": "",
      "contactEmail": "",
      "contactPhone": "",
      "printers": [
        {
          "serialNumber": "SP012305001286",
          "productLine": "Studio"
        }
      ]
    },
    {
      "id": "site-161",
      "name": "Naval Post Graduate School",
      "street": "787 W. Woodbury Road,10",
      "city": "Altadena",
      "state": "CA",
      "zip": "91001",
      "country": "US",
      "latitude": 34.183955,
      "longitude": -118.1671562,
      "installations": 1,
      "productLines": 1,
      "priorityScore": 10,
      "priorityTier": "C",
      "hasShop": false,
      "hasStudio": true,
      "hasInnX": false,
      "contactName": "Puetter, Lucas",
      "contactEmail": "lucas.puetter.gy@nps.edu",
      "contactPhone": "323 244-2236",
      "printers": [
        {
          "serialNumber": "SP011840000693",
          "productLine": "Studio"
        }
      ]
    },
    {
      "id": "site-162",
      "name": "Naval Surface Warfare Center",
      "street": "P.O. Box 998022",
      "city": "Cleveland",
      "state": "OH",
      "zip": "44199-8022",
      "country": "US",
      "latitude": 41.49932,
      "longitude": -81.6943605,
      "installations": 3,
      "productLines": 2,
      "priorityScore": 10,
      "priorityTier": "C",
      "hasShop": true,
      "hasStudio": true,
      "hasInnX": false,
      "contactName": "",
      "contactEmail": "",
      "contactPhone": "540 653-9400",
      "printers": [
        {
          "serialNumber": "DP742047000118",
          "productLine": "Shop"
        },
        {
          "serialNumber": "SP011845001112",
          "productLine": "Studio"
        },
        {
          "serialNumber": "SP012006006243",
          "productLine": "Studio"
        }
      ]
    },
    {
      "id": "site-163",
      "name": "Naval Surface Warfare Center",
      "street": "5317 Wilson Blvd",
      "city": "Arlington",
      "state": "VA",
      "zip": "22205",
      "country": "US",
      "latitude": 38.8771693,
      "longitude": -77.1261235,
      "installations": 1,
      "productLines": 1,
      "priorityScore": 10,
      "priorityTier": "C",
      "hasShop": false,
      "hasStudio": true,
      "hasInnX": false,
      "contactName": "Ferro, Tyler J  CIV USN NAVSURFWARCEN DAH VA",
      "contactEmail": "tyler.j.ferro.civ@us.navy.mil",
      "contactPhone": "",
      "printers": [
        {
          "serialNumber": "SP011842000789",
          "productLine": "Studio"
        }
      ]
    },
    {
      "id": "site-164",
      "name": "Naval Surface Warfare Center",
      "street": "Attn:  Accounts Payable 165 N Arlington Hts Rd, Ste 101",
      "city": "Buffalo Grove",
      "state": "IL",
      "zip": "60089",
      "country": "US",
      "latitude": 42.1560235,
      "longitude": -87.9831814,
      "installations": 1,
      "productLines": 1,
      "priorityScore": 10,
      "priorityTier": "C",
      "hasShop": false,
      "hasStudio": true,
      "hasInnX": false,
      "contactName": "Woodman, Norman Jr CTR USN NSWC CD CRANE IN",
      "contactEmail": "norman.woodman3.ctr@us.navy.mil",
      "contactPhone": "8883082284",
      "printers": [
        {
          "serialNumber": "SP011935004281",
          "productLine": "Studio"
        }
      ]
    },
    {
      "id": "site-165",
      "name": "New Mexico State University",
      "street": "1040 South Horseshoe Street",
      "city": "Las Cruces",
      "state": "NM",
      "zip": "88003",
      "country": "US",
      "latitude": 32.2812711,
      "longitude": -106.7551605,
      "installations": 1,
      "productLines": 1,
      "priorityScore": 20,
      "priorityTier": "C",
      "hasShop": false,
      "hasStudio": false,
      "hasInnX": true,
      "contactName": "Reyes Lucero",
      "contactEmail": "reyes350@nmsu.edu",
      "contactPhone": "5756351406",
      "printers": [
        {
          "serialNumber": "INV-258",
          "productLine": "InnX"
        }
      ]
    },
    {
      "id": "site-166",
      "name": "Newport News Shipbuilding",
      "street": "3434 US-22 West Suite 130",
      "city": "Branchburg",
      "state": "NJ",
      "zip": "8876",
      "country": "US",
      "latitude": 40.6099422,
      "longitude": -74.7108797,
      "installations": 1,
      "productLines": 1,
      "priorityScore": 10,
      "priorityTier": "C",
      "hasShop": false,
      "hasStudio": true,
      "hasInnX": false,
      "contactName": "",
      "contactEmail": "",
      "contactPhone": "732-699-0400",
      "printers": [
        {
          "serialNumber": "SP012033007119",
          "productLine": "Studio"
        }
      ]
    },
    {
      "id": "site-167",
      "name": "NIEHS",
      "street": "448 N Cedar Bluff Rd Suite 334",
      "city": "Knoxville",
      "state": "TN",
      "zip": "37923",
      "country": "US",
      "latitude": 35.9249676,
      "longitude": -84.0933172,
      "installations": 1,
      "productLines": 1,
      "priorityScore": 20,
      "priorityTier": "C",
      "hasShop": false,
      "hasStudio": true,
      "hasInnX": false,
      "contactName": "",
      "contactEmail": "",
      "contactPhone": "1 (865) 805-6831",
      "printers": [
        {
          "serialNumber": "SP012217009796",
          "productLine": "Studio"
        }
      ]
    },
    {
      "id": "site-168",
      "name": "Nightwing",
      "street": "4991 Lake Brook Drive ## 300",
      "city": "Glen Allen",
      "state": "VA",
      "zip": "23060",
      "country": "US",
      "latitude": 37.6718567,
      "longitude": -77.5724173,
      "installations": 1,
      "productLines": 1,
      "priorityScore": 20,
      "priorityTier": "C",
      "hasShop": false,
      "hasStudio": true,
      "hasInnX": false,
      "contactName": "Andreu Rodriguez, Luis      RTX",
      "contactEmail": "luis.andreu.rodriguez@rtx.com",
      "contactPhone": "5086308065",
      "printers": [
        {
          "serialNumber": "SP012006006255",
          "productLine": "Studio"
        }
      ]
    },
    {
      "id": "site-169",
      "name": "Nissan",
      "street": "5737 Vinton NW",
      "city": "Comstock Park",
      "state": "MI",
      "zip": "49321",
      "country": "US",
      "latitude": 43.0693995,
      "longitude": -85.6879284,
      "installations": 1,
      "productLines": 1,
      "priorityScore": 15,
      "priorityTier": "C",
      "hasShop": true,
      "hasStudio": false,
      "hasInnX": false,
      "contactName": "Zakoff, John",
      "contactEmail": "zakoffj@nrd.nissan-usa.com",
      "contactPhone": "1 (616) 784-1756",
      "printers": [
        {
          "serialNumber": "DP742127000189",
          "productLine": "Shop"
        }
      ]
    },
    {
      "id": "site-170",
      "name": "Nissan North America, Inc.",
      "street": "15231 Laguna Canyon Road Suite 250",
      "city": "Irvine",
      "state": "CA",
      "zip": "92618",
      "country": "US",
      "latitude": 33.6709786,
      "longitude": -117.7625796,
      "installations": 1,
      "productLines": 1,
      "priorityScore": 10,
      "priorityTier": "C",
      "hasShop": false,
      "hasStudio": true,
      "hasInnX": false,
      "contactName": "",
      "contactEmail": "",
      "contactPhone": "",
      "printers": [
        {
          "serialNumber": "SP011845001110",
          "productLine": "Studio"
        }
      ]
    },
    {
      "id": "site-171",
      "name": "North American Lighting",
      "street": "27 Briscoe Drive",
      "city": "Flora",
      "state": "IL",
      "zip": "62839",
      "country": "US",
      "latitude": 38.6621998,
      "longitude": -88.4658899,
      "installations": 1,
      "productLines": 1,
      "priorityScore": 15,
      "priorityTier": "C",
      "hasShop": true,
      "hasStudio": false,
      "hasInnX": false,
      "contactName": "Jonathan Piperakis",
      "contactEmail": "jonathan_piperakis@nal.com",
      "contactPhone": "",
      "printers": [
        {
          "serialNumber": "DP742213000283",
          "productLine": "Shop"
        }
      ]
    },
    {
      "id": "site-172",
      "name": "North Carolina State University",
      "street": "2076 Valleydale Terr",
      "city": "Birmingham",
      "state": "AL",
      "zip": "35244",
      "country": "US",
      "latitude": 33.3470475,
      "longitude": -86.7988801,
      "installations": 1,
      "productLines": 1,
      "priorityScore": 15,
      "priorityTier": "C",
      "hasShop": false,
      "hasStudio": true,
      "hasInnX": false,
      "contactName": "",
      "contactEmail": "",
      "contactPhone": "+1 800-851-3987 ext 9137",
      "printers": [
        {
          "serialNumber": "SP011911001664",
          "productLine": "Studio"
        }
      ]
    },
    {
      "id": "site-173",
      "name": "North Carolina State University - Raleigh",
      "street": "2076 Valleydale Terr",
      "city": "Birmingham",
      "state": "AL",
      "zip": "35244",
      "country": "US",
      "latitude": 33.3470475,
      "longitude": -86.7988801,
      "installations": 1,
      "productLines": 1,
      "priorityScore": 270,
      "priorityTier": "A",
      "hasShop": true,
      "hasStudio": false,
      "hasInnX": false,
      "contactName": "Zak Olech",
      "contactEmail": "zolech@ncsu.edu",
      "contactPhone": "+1 800-851-3987 ext 9137",
      "printers": [
        {
          "serialNumber": "DP742148000260",
          "productLine": "Shop"
        }
      ]
    },
    {
      "id": "site-174",
      "name": "North-South Machinery, Inc. - Demo - Termianted VAR",
      "street": "1400 Pioneer Street",
      "city": "Brea",
      "state": "CA",
      "zip": "92821",
      "country": "US",
      "latitude": 33.9228315,
      "longitude": -117.9197407,
      "installations": 1,
      "productLines": 1,
      "priorityScore": 270,
      "priorityTier": "A",
      "hasShop": false,
      "hasStudio": true,
      "hasInnX": false,
      "contactName": "",
      "contactEmail": "ali@tmwmedical.com",
      "contactPhone": "5626907616",
      "printers": [
        {
          "serialNumber": "SP011943005094",
          "productLine": "Studio"
        }
      ]
    },
    {
      "id": "site-175",
      "name": "Northwestern University",
      "street": "Department of Mechanical Engineering 2145 Sheridan Road",
      "city": "Evanston",
      "state": "IL",
      "zip": "60208",
      "country": "US",
      "latitude": 42.0576639,
      "longitude": -87.6758349,
      "installations": 1,
      "productLines": 1,
      "priorityScore": 20,
      "priorityTier": "C",
      "hasShop": false,
      "hasStudio": false,
      "hasInnX": true,
      "contactName": "Peter  Li",
      "contactEmail": "zhiyuanli2028@u.northwestern.edu",
      "contactPhone": "",
      "printers": [
        {
          "serialNumber": "INV-0290",
          "productLine": "InnX"
        }
      ]
    },
    {
      "id": "site-176",
      "name": "NSWC-Corona",
      "street": "1860 Town and Country Drive",
      "city": "Norco",
      "state": "CA",
      "zip": "92860",
      "country": "US",
      "latitude": 33.927161,
      "longitude": -117.5603851,
      "installations": 1,
      "productLines": 1,
      "priorityScore": 10,
      "priorityTier": "C",
      "hasShop": false,
      "hasStudio": true,
      "hasInnX": false,
      "contactName": "Van Weezendonk, Mark F",
      "contactEmail": "mark.f.vanweezendonk@hii.com",
      "contactPhone": "(951) 255-3944",
      "printers": [
        {
          "serialNumber": "SP012305001285",
          "productLine": "Studio"
        }
      ]
    },
    {
      "id": "site-177",
      "name": "NSWCCD-Carderock Division",
      "street": "9500 Macarthur Boulevard",
      "city": "Bethesda",
      "state": "MD",
      "zip": "20817",
      "country": "US",
      "latitude": 38.9766024,
      "longitude": -77.194974,
      "installations": 1,
      "productLines": 1,
      "priorityScore": 20,
      "priorityTier": "C",
      "hasShop": false,
      "hasStudio": false,
      "hasInnX": true,
      "contactName": "Schwind, Evan C CIV",
      "contactEmail": "evan.c.schwind.civ@us.navy.mil",
      "contactPhone": "(301) 227-2371",
      "printers": [
        {
          "serialNumber": "INV-0237",
          "productLine": "InnX"
        }
      ]
    },
    {
      "id": "site-178",
      "name": "Oak Ridge National Laboratory",
      "street": "2076 Valleydale Terrace",
      "city": "Birmingham",
      "state": "AL",
      "zip": "35244",
      "country": "US",
      "latitude": 33.3470475,
      "longitude": -86.7988801,
      "installations": 3,
      "productLines": 1,
      "priorityScore": 40,
      "priorityTier": "B",
      "hasShop": false,
      "hasStudio": true,
      "hasInnX": false,
      "contactName": "",
      "contactEmail": "",
      "contactPhone": "1 (888) 220-6293",
      "printers": [
        {
          "serialNumber": "SP011933003970",
          "productLine": "Studio"
        },
        {
          "serialNumber": "SP011933004050",
          "productLine": "Studio"
        },
        {
          "serialNumber": "SP011933004058",
          "productLine": "Studio"
        }
      ]
    },
    {
      "id": "site-179",
      "name": "Oak Ridge National Laboratory",
      "street": "2360 Cherahala Blvd",
      "city": "Knoxville",
      "state": "TN",
      "zip": "37932",
      "country": "US",
      "latitude": 35.9542871,
      "longitude": -84.1544745,
      "installations": 3,
      "productLines": 1,
      "priorityScore": 40,
      "priorityTier": "B",
      "hasShop": false,
      "hasStudio": false,
      "hasInnX": true,
      "contactName": "Amy Elliott",
      "contactEmail": "",
      "contactPhone": "(865) 574-5220",
      "printers": [
        {
          "serialNumber": "INV-0270",
          "productLine": "InnX"
        },
        {
          "serialNumber": "IV-0166",
          "productLine": "InnX"
        },
        {
          "serialNumber": "IV-0133",
          "productLine": "InnX"
        }
      ]
    },
    {
      "id": "site-180",
      "name": "Ohio State University | CDME",
      "street": "1314 Kinnear Rd",
      "city": "Columbus",
      "state": "OH",
      "zip": "43212",
      "country": "US",
      "latitude": 39.9997942,
      "longitude": -83.0443066,
      "installations": 1,
      "productLines": 1,
      "priorityScore": 20,
      "priorityTier": "C",
      "hasShop": false,
      "hasStudio": false,
      "hasInnX": true,
      "contactName": "Papazoglou, Dimitri",
      "contactEmail": "papazoglou.2@osu.edu",
      "contactPhone": "(614) 292-5770",
      "printers": [
        {
          "serialNumber": "IV0149",
          "productLine": "InnX"
        }
      ]
    },
    {
      "id": "site-181",
      "name": "Old Dominion University - College of Engineering",
      "street": "1244 Ritchie Hwy., Suite 10",
      "city": "Arnold",
      "state": "MD",
      "zip": "21012",
      "country": "US",
      "latitude": 39.0460417,
      "longitude": -76.5189599,
      "installations": 3,
      "productLines": 1,
      "priorityScore": 20,
      "priorityTier": "C",
      "hasShop": false,
      "hasStudio": true,
      "hasInnX": false,
      "contactName": "Dean, Anthony",
      "contactEmail": "adean@odu.edu",
      "contactPhone": "",
      "printers": [
        {
          "serialNumber": "SP011909001657",
          "productLine": "Studio"
        },
        {
          "serialNumber": "SP011909001658",
          "productLine": "Studio"
        },
        {
          "serialNumber": "SP011911001662",
          "productLine": "Studio"
        }
      ]
    },
    {
      "id": "site-182",
      "name": "ONDRIVES",
      "street": "910 Day Hill Road",
      "city": "Windsor",
      "state": "CT",
      "zip": "06095",
      "country": "US",
      "latitude": 41.8796089,
      "longitude": -72.6995799,
      "installations": 1,
      "productLines": 1,
      "priorityScore": 20,
      "priorityTier": "C",
      "hasShop": false,
      "hasStudio": true,
      "hasInnX": false,
      "contactName": "Vincent Calandrino",
      "contactEmail": "vincent@ondrives.us",
      "contactPhone": "860-687-3475",
      "printers": [
        {
          "serialNumber": "SP011823000288",
          "productLine": "Studio"
        }
      ]
    },
    {
      "id": "site-183",
      "name": "Optisys, Inc.",
      "street": "250 W 3900 S UNIT 1 Building A",
      "city": "Salt Lake City",
      "state": "UT",
      "zip": "84107",
      "country": "US",
      "latitude": 40.6877818,
      "longitude": -111.8980688,
      "installations": 1,
      "productLines": 1,
      "priorityScore": 15,
      "priorityTier": "C",
      "hasShop": true,
      "hasStudio": false,
      "hasInnX": false,
      "contactName": "Robert Smith",
      "contactEmail": "robert.smith@optisys.com",
      "contactPhone": "201.824.3495 Cell",
      "printers": [
        {
          "serialNumber": "DP742217000290",
          "productLine": "Shop"
        }
      ]
    },
    {
      "id": "site-184",
      "name": "Owens Corning",
      "street": "P.O. Box 13950",
      "city": "Durham",
      "state": "NC",
      "zip": "27709",
      "country": "US",
      "latitude": 35.8908636,
      "longitude": -78.8665733,
      "installations": 1,
      "productLines": 1,
      "priorityScore": 10,
      "priorityTier": "C",
      "hasShop": false,
      "hasStudio": true,
      "hasInnX": false,
      "contactName": "",
      "contactEmail": "",
      "contactPhone": "",
      "printers": [
        {
          "serialNumber": "SP011845001113",
          "productLine": "Studio"
        }
      ]
    },
    {
      "id": "site-185",
      "name": "Ozarks Technical Comm College",
      "street": "58 East South Street",
      "city": "Rossville",
      "state": "IN",
      "zip": "46065",
      "country": "US",
      "latitude": 40.416297,
      "longitude": -86.5927913,
      "installations": 1,
      "productLines": 1,
      "priorityScore": 10,
      "priorityTier": "C",
      "hasShop": false,
      "hasStudio": true,
      "hasInnX": false,
      "contactName": "RANDOLPH, ROBERT J.",
      "contactEmail": "randolpr@otc.edu",
      "contactPhone": "1 (815) 942-4299",
      "printers": [
        {
          "serialNumber": "SP011939004655",
          "productLine": "Studio"
        }
      ]
    },
    {
      "id": "site-186",
      "name": "Pall Corporation",
      "street": "3643 NYS Route 281",
      "city": "Cortland",
      "state": "NY",
      "zip": "13045",
      "country": "US",
      "latitude": 42.583115,
      "longitude": -76.2142339,
      "installations": 1,
      "productLines": 1,
      "priorityScore": 20,
      "priorityTier": "C",
      "hasShop": false,
      "hasStudio": false,
      "hasInnX": true,
      "contactName": "Tan, Hong Wei",
      "contactEmail": "hong_wei_tan@pall.com",
      "contactPhone": "(607) 758-4338",
      "printers": [
        {
          "serialNumber": "INV-0206",
          "productLine": "InnX"
        }
      ]
    },
    {
      "id": "site-187",
      "name": "Patriot Ordnance Factory",
      "street": "1400 Pioneer Street",
      "city": "Brea",
      "state": "CA",
      "zip": "92821",
      "country": "US",
      "latitude": 33.9228315,
      "longitude": -117.9197407,
      "installations": 1,
      "productLines": 1,
      "priorityScore": 70,
      "priorityTier": "A",
      "hasShop": true,
      "hasStudio": false,
      "hasInnX": false,
      "contactName": "POF-USA Engineering",
      "contactEmail": "engineering@pof-usa.com",
      "contactPhone": "5626907616",
      "printers": [
        {
          "serialNumber": "DP742140000236",
          "productLine": "Shop"
        }
      ]
    },
    {
      "id": "site-188",
      "name": "PCC Structurals, Inc.",
      "street": "LARGE PARTS CAMPUS-- TITANIUM (LPC-T) RECEIVING DOCK, Ref PO PC194440",
      "city": "Portland",
      "state": "OR",
      "zip": "97222",
      "country": "US",
      "latitude": 45.4564057,
      "longitude": -122.5945941,
      "installations": 3,
      "productLines": 1,
      "priorityScore": 30,
      "priorityTier": "B",
      "hasShop": false,
      "hasStudio": true,
      "hasInnX": false,
      "contactName": "Johnson, Peter",
      "contactEmail": "peter.johnson@pccstructurals.com",
      "contactPhone": "",
      "printers": [
        {
          "serialNumber": "SP012215009751",
          "productLine": "Studio"
        },
        {
          "serialNumber": "SP012215009767",
          "productLine": "Studio"
        },
        {
          "serialNumber": "SP012234000364",
          "productLine": "Studio"
        }
      ]
    },
    {
      "id": "site-189",
      "name": "Penn State University",
      "street": "201 Old Main",
      "city": "University Park",
      "state": "PA",
      "zip": "16802",
      "country": "US",
      "latitude": 40.7964667,
      "longitude": -77.8628304,
      "installations": 1,
      "productLines": 1,
      "priorityScore": 20,
      "priorityTier": "C",
      "hasShop": false,
      "hasStudio": false,
      "hasInnX": true,
      "contactName": "Shahed, Kazi Safowan",
      "contactEmail": "kxs6079@psu.edu",
      "contactPhone": "(760) 978-0066",
      "printers": [
        {
          "serialNumber": "INV-0154",
          "productLine": "InnX"
        }
      ]
    },
    {
      "id": "site-190",
      "name": "PGV Oil Tools",
      "street": "319 South First Street",
      "city": "Temple",
      "state": "TX",
      "zip": "76504",
      "country": "US",
      "latitude": 31.0931361,
      "longitude": -97.3432644,
      "installations": 1,
      "productLines": 1,
      "priorityScore": 20,
      "priorityTier": "C",
      "hasShop": true,
      "hasStudio": false,
      "hasInnX": false,
      "contactName": "Ramon Perales",
      "contactEmail": "ramon@pgvus.com",
      "contactPhone": "(254) 742-2050",
      "printers": [
        {
          "serialNumber": "DP742134000213",
          "productLine": "Shop"
        }
      ]
    },
    {
      "id": "site-191",
      "name": "Phoenix Analysis & Design Technologies - Demo - Terminated VAR",
      "street": "7755 S. Research Dr, Suite 110 Attn Kathryn Pesta",
      "city": "Tempe",
      "state": "AZ",
      "zip": "85284",
      "country": "US",
      "latitude": 33.3475742,
      "longitude": -111.8950895,
      "installations": 1,
      "productLines": 1,
      "priorityScore": 10,
      "priorityTier": "C",
      "hasShop": false,
      "hasStudio": true,
      "hasInnX": false,
      "contactName": "",
      "contactEmail": "",
      "contactPhone": "",
      "printers": [
        {
          "serialNumber": "SP011840000692",
          "productLine": "Studio"
        }
      ]
    },
    {
      "id": "site-192",
      "name": "Phoenix DeVentures",
      "street": "207 East Ohio Street",
      "city": "Chicago",
      "state": "IL",
      "zip": "60611",
      "country": "US",
      "latitude": 41.8923952,
      "longitude": -87.6219111,
      "installations": 1,
      "productLines": 1,
      "priorityScore": 70,
      "priorityTier": "A",
      "hasShop": true,
      "hasStudio": false,
      "hasInnX": false,
      "contactName": "Jordan Carter",
      "contactEmail": "jordanc@phoenixdeventures.com",
      "contactPhone": "1 (312) 953-4479",
      "printers": [
        {
          "serialNumber": "DP742134000217",
          "productLine": "Shop"
        }
      ]
    },
    {
      "id": "site-193",
      "name": "Pratt & Whitney Aircraft Grp",
      "street": "3434 US-22 West Suite 130",
      "city": "Branchburg",
      "state": "NJ",
      "zip": "8876",
      "country": "US",
      "latitude": 40.6099422,
      "longitude": -74.7108797,
      "installations": 1,
      "productLines": 1,
      "priorityScore": 70,
      "priorityTier": "A",
      "hasShop": false,
      "hasStudio": true,
      "hasInnX": false,
      "contactName": "Williams, Brad N                            PW",
      "contactEmail": "bradley.williams@prattwhitney.com",
      "contactPhone": "732-699-0400",
      "printers": [
        {
          "serialNumber": "SP012002005919",
          "productLine": "Studio"
        }
      ]
    },
    {
      "id": "site-194",
      "name": "PrinterPrezz, Inc.",
      "street": "4026 Clipper Court",
      "city": "Fremont",
      "state": "CA",
      "zip": "94538",
      "country": "US",
      "latitude": 37.4792643,
      "longitude": -121.9464948,
      "installations": 1,
      "productLines": 1,
      "priorityScore": 15,
      "priorityTier": "C",
      "hasShop": true,
      "hasStudio": false,
      "hasInnX": false,
      "contactName": "Dylan Tepper",
      "contactEmail": "dylan.tepper@z8a.com",
      "contactPhone": "510-225-8412",
      "printers": [
        {
          "serialNumber": "DP742051000123",
          "productLine": "Shop"
        }
      ]
    },
    {
      "id": "site-195",
      "name": "Printy s.r.o.",
      "street": "63 Third Avenue",
      "city": "Burlington",
      "state": "MA",
      "zip": "01803",
      "country": "US",
      "latitude": 42.4883564,
      "longitude": -71.227503,
      "installations": 1,
      "productLines": 1,
      "priorityScore": 15,
      "priorityTier": "C",
      "hasShop": true,
      "hasStudio": false,
      "hasInnX": false,
      "contactName": "rado@printy.me",
      "contactEmail": "rado@printy.me",
      "contactPhone": "+19782241244",
      "printers": [
        {
          "serialNumber": "DP742113000177",
          "productLine": "Shop"
        }
      ]
    },
    {
      "id": "site-196",
      "name": "Privateer Space",
      "street": "590 Lipoa Parkway",
      "city": "Kihei",
      "state": "HI",
      "zip": "96753",
      "country": "US",
      "latitude": 20.7483725,
      "longitude": -156.4379381,
      "installations": 1,
      "productLines": 1,
      "priorityScore": 10,
      "priorityTier": "C",
      "hasShop": false,
      "hasStudio": true,
      "hasInnX": false,
      "contactName": "Marco Rossi",
      "contactEmail": "marco@privateer.com",
      "contactPhone": "",
      "printers": [
        {
          "serialNumber": "SP011909001655",
          "productLine": "Studio"
        }
      ]
    },
    {
      "id": "site-197",
      "name": "Proto Labs",
      "street": "5540 Pioneer Creek Drive",
      "city": "Maple",
      "state": "MN",
      "zip": "55359",
      "country": "US",
      "latitude": 45.0131136,
      "longitude": -93.6634913,
      "installations": 1,
      "productLines": 1,
      "priorityScore": 10,
      "priorityTier": "C",
      "hasShop": false,
      "hasStudio": true,
      "hasInnX": false,
      "contactName": "",
      "contactEmail": "",
      "contactPhone": "",
      "printers": [
        {
          "serialNumber": "SP011848001256",
          "productLine": "Studio"
        }
      ]
    },
    {
      "id": "site-198",
      "name": "Prototype Garage",
      "street": "Attn:  Accounts Payable 165 N Arlington Hts Rd, Ste 101",
      "city": "Buffalo Grove",
      "state": "IL",
      "zip": "60089",
      "country": "US",
      "latitude": 42.1560235,
      "longitude": -87.9831814,
      "installations": 1,
      "productLines": 1,
      "priorityScore": 10,
      "priorityTier": "C",
      "hasShop": false,
      "hasStudio": true,
      "hasInnX": false,
      "contactName": "",
      "contactEmail": "",
      "contactPhone": "8883082284",
      "printers": [
        {
          "serialNumber": "SP011838000581",
          "productLine": "Studio"
        }
      ]
    },
    {
      "id": "site-199",
      "name": "Q LLC",
      "street": "110 Venture Dr",
      "city": "Dover",
      "state": "NH",
      "zip": "03820",
      "country": "US",
      "latitude": 43.2237497,
      "longitude": -70.9100271,
      "installations": 1,
      "productLines": 1,
      "priorityScore": 15,
      "priorityTier": "C",
      "hasShop": true,
      "hasStudio": false,
      "hasInnX": false,
      "contactName": "Prinzton Florez",
      "contactEmail": "p.flores@liveqordie.com",
      "contactPhone": "",
      "printers": [
        {
          "serialNumber": "DP742134000219",
          "productLine": "Shop"
        }
      ]
    },
    {
      "id": "site-200",
      "name": "Reliable Automatic Spk Co.",
      "street": "103 Fairview Park Drive",
      "city": "Elmsford",
      "state": "NY",
      "zip": "10523",
      "country": "US",
      "latitude": 41.0658285,
      "longitude": -73.8188045,
      "installations": 1,
      "productLines": 1,
      "priorityScore": 10,
      "priorityTier": "C",
      "hasShop": false,
      "hasStudio": true,
      "hasInnX": false,
      "contactName": "",
      "contactEmail": "",
      "contactPhone": "",
      "printers": [
        {
          "serialNumber": "SP011905001638",
          "productLine": "Studio"
        }
      ]
    },
    {
      "id": "site-201",
      "name": "RESEARCH & TECHNOLOGY INTEGRATION",
      "street": "10440 Furnace Road",
      "city": "Lorton",
      "state": "VA",
      "zip": "22079",
      "country": "US",
      "latitude": 38.6746168,
      "longitude": -77.2424845,
      "installations": 1,
      "productLines": 1,
      "priorityScore": 10,
      "priorityTier": "C",
      "hasShop": false,
      "hasStudio": true,
      "hasInnX": false,
      "contactName": "Andrew Kim",
      "contactEmail": "andrew.e.kim4.civ@army.mil",
      "contactPhone": "",
      "printers": [
        {
          "serialNumber": "SP012309011449",
          "productLine": "Studio"
        }
      ]
    },
    {
      "id": "site-202",
      "name": "Rice University",
      "street": "6100 Main St",
      "city": "",
      "state": "TX",
      "zip": "77005",
      "country": "US",
      "latitude": 29.7201306,
      "longitude": -95.4018157,
      "installations": 1,
      "productLines": 1,
      "priorityScore": 20,
      "priorityTier": "C",
      "hasShop": false,
      "hasStudio": false,
      "hasInnX": true,
      "contactName": "Wesley Combs",
      "contactEmail": "wc50@rice.edu",
      "contactPhone": "(903) 701-7674",
      "printers": [
        {
          "serialNumber": "IV-0130",
          "productLine": "InnX"
        }
      ]
    },
    {
      "id": "site-203",
      "name": "Rochester Institute of Technology",
      "street": "6310 Fly Road",
      "city": "East Syracuse",
      "state": "NY",
      "zip": "13057",
      "country": "US",
      "latitude": 43.0776481,
      "longitude": -76.0576381,
      "installations": 1,
      "productLines": 1,
      "priorityScore": 10,
      "priorityTier": "C",
      "hasShop": false,
      "hasStudio": true,
      "hasInnX": false,
      "contactName": "",
      "contactEmail": "",
      "contactPhone": "",
      "printers": [
        {
          "serialNumber": "SP011838000578",
          "productLine": "Studio"
        }
      ]
    },
    {
      "id": "site-204",
      "name": "ROOTS Education Co",
      "street": "795 Commer Drive",
      "city": "Venice",
      "state": "FL",
      "zip": "342929",
      "country": "US",
      "latitude": 27.112538,
      "longitude": -82.37864,
      "installations": 1,
      "productLines": 1,
      "priorityScore": 10,
      "priorityTier": "C",
      "hasShop": false,
      "hasStudio": true,
      "hasInnX": false,
      "contactName": "",
      "contactEmail": "",
      "contactPhone": "4078857150",
      "printers": [
        {
          "serialNumber": "SP012337000873",
          "productLine": "Studio"
        }
      ]
    },
    {
      "id": "site-205",
      "name": "Saddleback College",
      "street": "1400 Pioneer Street",
      "city": "Brea",
      "state": "CA",
      "zip": "92821",
      "country": "US",
      "latitude": 33.9228315,
      "longitude": -117.9197407,
      "installations": 1,
      "productLines": 1,
      "priorityScore": 10,
      "priorityTier": "C",
      "hasShop": false,
      "hasStudio": true,
      "hasInnX": false,
      "contactName": "Glen Stevenson",
      "contactEmail": "gstevenson3@saddleback.edu",
      "contactPhone": "5626907616",
      "printers": [
        {
          "serialNumber": "SP011911001999",
          "productLine": "Studio"
        }
      ]
    },
    {
      "id": "site-206",
      "name": "Saint-Gobain",
      "street": "9 Goddard Road",
      "city": "Northborough",
      "state": "MA",
      "zip": "01532",
      "country": "US",
      "latitude": 42.3449667,
      "longitude": -71.6209812,
      "installations": 1,
      "productLines": 1,
      "priorityScore": 20,
      "priorityTier": "C",
      "hasShop": false,
      "hasStudio": false,
      "hasInnX": true,
      "contactName": "Howard, David W.",
      "contactEmail": "david.w.howard@saint-gobain.com",
      "contactPhone": "(508) 335-7976",
      "printers": [
        {
          "serialNumber": "IV-0146",
          "productLine": "InnX"
        }
      ]
    },
    {
      "id": "site-207",
      "name": "Sandia National Laboratories",
      "street": "1515 Eubank Blvd SE",
      "city": "Albuquerque",
      "state": "NM",
      "zip": "87123",
      "country": "US",
      "latitude": 35.0552855,
      "longitude": -106.5340267,
      "installations": 1,
      "productLines": 1,
      "priorityScore": 10,
      "priorityTier": "C",
      "hasShop": false,
      "hasStudio": true,
      "hasInnX": false,
      "contactName": "Baker, Jacob Lee",
      "contactEmail": "jacbake@sandia.gov",
      "contactPhone": "9256677175",
      "printers": [
        {
          "serialNumber": "SP012248000906",
          "productLine": "Studio"
        }
      ]
    },
    {
      "id": "site-208",
      "name": "Sargent Manufacturing Inc",
      "street": "3434 US-22 West Suite 130",
      "city": "Branchburg",
      "state": "NJ",
      "zip": "8876",
      "country": "US",
      "latitude": 40.6099422,
      "longitude": -74.7108797,
      "installations": 1,
      "productLines": 1,
      "priorityScore": 10,
      "priorityTier": "C",
      "hasShop": false,
      "hasStudio": true,
      "hasInnX": false,
      "contactName": "Kwieraga, James",
      "contactEmail": "james.kwieraga@assaabloy.com",
      "contactPhone": "732-699-0400",
      "printers": [
        {
          "serialNumber": "SP012033007120",
          "productLine": "Studio"
        }
      ]
    },
    {
      "id": "site-209",
      "name": "Savage Arms Inc",
      "street": "910 Day Hill Road",
      "city": "Windsor",
      "state": "CT",
      "zip": "06095",
      "country": "US",
      "latitude": 41.8796089,
      "longitude": -72.6995799,
      "installations": 1,
      "productLines": 1,
      "priorityScore": 130,
      "priorityTier": "A",
      "hasShop": true,
      "hasStudio": false,
      "hasInnX": false,
      "contactName": "Leo Maric",
      "contactEmail": "lmaric@savagearms.com",
      "contactPhone": "860-687-3475",
      "printers": [
        {
          "serialNumber": "DP742047000117",
          "productLine": "Shop"
        }
      ]
    },
    {
      "id": "site-210",
      "name": "Scojet",
      "street": "4991 Lake Brook Drive ## 300",
      "city": "Glen Allen",
      "state": "VA",
      "zip": "23060",
      "country": "US",
      "latitude": 37.6718567,
      "longitude": -77.5724173,
      "installations": 2,
      "productLines": 2,
      "priorityScore": 120,
      "priorityTier": "A",
      "hasShop": true,
      "hasStudio": true,
      "hasInnX": false,
      "contactName": "Gary Trzcianka",
      "contactEmail": "gtrzcianka@scojet.com",
      "contactPhone": "5086308065",
      "printers": [
        {
          "serialNumber": "DP732044000105",
          "productLine": "Shop"
        },
        {
          "serialNumber": "SP012140008837",
          "productLine": "Studio"
        }
      ]
    },
    {
      "id": "site-211",
      "name": "Segna Inc.",
      "street": "1316 South Barnhart Rd",
      "city": "Troy",
      "state": "OH",
      "zip": "45373",
      "country": "US",
      "latitude": 40.0186638,
      "longitude": -84.2408151,
      "installations": 1,
      "productLines": 1,
      "priorityScore": 10,
      "priorityTier": "C",
      "hasShop": false,
      "hasStudio": true,
      "hasInnX": false,
      "contactName": "",
      "contactEmail": "",
      "contactPhone": "",
      "printers": [
        {
          "serialNumber": "SP011905001620",
          "productLine": "Studio"
        }
      ]
    },
    {
      "id": "site-212",
      "name": "Select Machining Technologies",
      "street": "910 Day Hill Road",
      "city": "Windsor",
      "state": "CT",
      "zip": "06095",
      "country": "US",
      "latitude": 41.8796089,
      "longitude": -72.6995799,
      "installations": 1,
      "productLines": 1,
      "priorityScore": 10,
      "priorityTier": "C",
      "hasShop": true,
      "hasStudio": false,
      "hasInnX": false,
      "contactName": "Greg Snyder",
      "contactEmail": "gsnyder@selectadditive.com",
      "contactPhone": "860-687-3475",
      "printers": [
        {
          "serialNumber": "DP742148000265",
          "productLine": "Shop"
        }
      ]
    },
    {
      "id": "site-213",
      "name": "Selway Machine Tool Co, Inc. - Demo",
      "street": "29250 Union City Blvd",
      "city": "Union City",
      "state": "CA",
      "zip": "94587",
      "country": "US",
      "latitude": 37.6095406,
      "longitude": -122.0825512,
      "installations": 1,
      "productLines": 1,
      "priorityScore": 10,
      "priorityTier": "C",
      "hasShop": false,
      "hasStudio": true,
      "hasInnX": false,
      "contactName": "",
      "contactEmail": "",
      "contactPhone": "",
      "printers": [
        {
          "serialNumber": "SP011911001661",
          "productLine": "Studio"
        }
      ]
    },
    {
      "id": "site-214",
      "name": "Seymour Advanced Technologies LLC",
      "street": "448 N Cedar Bluff Rd Suite 334",
      "city": "Knoxville",
      "state": "TN",
      "zip": "37923",
      "country": "US",
      "latitude": 35.9249676,
      "longitude": -84.0933172,
      "installations": 1,
      "productLines": 1,
      "priorityScore": 10,
      "priorityTier": "C",
      "hasShop": false,
      "hasStudio": true,
      "hasInnX": false,
      "contactName": "Rob Seymour",
      "contactEmail": "rseymour@seymour-at.com",
      "contactPhone": "1 (865) 805-6831",
      "printers": [
        {
          "serialNumber": "SP011912001697",
          "productLine": "Studio"
        }
      ]
    },
    {
      "id": "site-215",
      "name": "Shippensburg Pump Co., Inc.",
      "street": "Valley Heating & Cooling Building",
      "city": "Shippensburg",
      "state": "PA",
      "zip": "17257",
      "country": "US",
      "latitude": 40.0506453,
      "longitude": -77.5202647,
      "installations": 1,
      "productLines": 1,
      "priorityScore": 15,
      "priorityTier": "C",
      "hasShop": true,
      "hasStudio": false,
      "hasInnX": false,
      "contactName": "Noah Scott",
      "contactEmail": "nscott@shipcopumps.com",
      "contactPhone": "",
      "printers": [
        {
          "serialNumber": "DP742051000120",
          "productLine": "Shop"
        }
      ]
    },
    {
      "id": "site-216",
      "name": "Simply 3D Hawaii LLC - Demo",
      "street": "98-029 Hekaha St, Bldg 5 Unit 36",
      "city": "Aiea",
      "state": "HI",
      "zip": "96701",
      "country": "US",
      "latitude": 21.3829602,
      "longitude": -157.9506397,
      "installations": 1,
      "productLines": 1,
      "priorityScore": 10,
      "priorityTier": "C",
      "hasShop": false,
      "hasStudio": true,
      "hasInnX": false,
      "contactName": "Kai Oshiro",
      "contactEmail": "admin@simply3dhawaii.com",
      "contactPhone": "",
      "printers": [
        {
          "serialNumber": "SP012029006978",
          "productLine": "Studio"
        }
      ]
    },
    {
      "id": "site-217",
      "name": "Skurka Aerospace Inc.",
      "street": "2940 E. La Cresta Avenue",
      "city": "Anaheim",
      "state": "CA",
      "zip": "92806",
      "country": "US",
      "latitude": 33.8544965,
      "longitude": -117.8656207,
      "installations": 1,
      "productLines": 1,
      "priorityScore": 10,
      "priorityTier": "C",
      "hasShop": false,
      "hasStudio": true,
      "hasInnX": false,
      "contactName": "Patrick Shelar",
      "contactEmail": "patricks@cad-cam.com",
      "contactPhone": "888-375-7676",
      "printers": [
        {
          "serialNumber": "SP012135008711",
          "productLine": "Studio"
        }
      ]
    },
    {
      "id": "site-218",
      "name": "Smith Metal Products",
      "street": "15045 Per Road",
      "city": "Center City",
      "state": "MN",
      "zip": "55012",
      "country": "US",
      "latitude": 45.3858684,
      "longitude": -92.8001474,
      "installations": 1,
      "productLines": 1,
      "priorityScore": 20,
      "priorityTier": "C",
      "hasShop": false,
      "hasStudio": false,
      "hasInnX": true,
      "contactName": "Todd Jensen",
      "contactEmail": "todd.jensen@smithmetals.com",
      "contactPhone": "(651) 257-7662",
      "printers": [
        {
          "serialNumber": "IV-0179",
          "productLine": "InnX"
        }
      ]
    },
    {
      "id": "site-219",
      "name": "SolidCAM Additive GmbH",
      "street": "207 Pheasant Run",
      "city": "Newtown",
      "state": "PA",
      "zip": "18940",
      "country": "US",
      "latitude": 40.2255033,
      "longitude": -74.9078148,
      "installations": 1,
      "productLines": 1,
      "priorityScore": 20,
      "priorityTier": "C",
      "hasShop": false,
      "hasStudio": true,
      "hasInnX": false,
      "contactName": "Emil Somekh",
      "contactEmail": "emil.somekh@solidcam.com",
      "contactPhone": "972544617611",
      "printers": [
        {
          "serialNumber": "SP012147009120",
          "productLine": "Studio"
        }
      ]
    },
    {
      "id": "site-220",
      "name": "SolidCAM Inc.",
      "street": "207 Pheasant Run",
      "city": "Newtown",
      "state": "PA",
      "zip": "18940",
      "country": "US",
      "latitude": 40.2255033,
      "longitude": -74.9078148,
      "installations": 2,
      "productLines": 1,
      "priorityScore": 100,
      "priorityTier": "A",
      "hasShop": false,
      "hasStudio": true,
      "hasInnX": false,
      "contactName": "Emil Somekh",
      "contactEmail": "emil.somekh@solidcam.com",
      "contactPhone": "972544617611",
      "printers": [
        {
          "serialNumber": "SP012209009607",
          "productLine": "Studio"
        },
        {
          "serialNumber": "SP012214009727",
          "productLine": "Studio"
        }
      ]
    },
    {
      "id": "site-221",
      "name": "SolidCAM Ltd.",
      "street": "207 Pheasant Run",
      "city": "Newtown",
      "state": "PA",
      "zip": "18940",
      "country": "US",
      "latitude": 40.2255033,
      "longitude": -74.9078148,
      "installations": 3,
      "productLines": 2,
      "priorityScore": 100,
      "priorityTier": "A",
      "hasShop": true,
      "hasStudio": true,
      "hasInnX": false,
      "contactName": "Emil Somekh",
      "contactEmail": "emil.somekh@solidcam.com",
      "contactPhone": "972544617611",
      "printers": [
        {
          "serialNumber": "DP742213000286",
          "productLine": "Shop"
        },
        {
          "serialNumber": "SP012213009723",
          "productLine": "Studio"
        },
        {
          "serialNumber": "SP012222009983",
          "productLine": "Studio"
        }
      ]
    },
    {
      "id": "site-222",
      "name": "SOUTHEAST COMMUNITY COLLEGE",
      "street": "1018 - 8th Street PMB 22",
      "city": "Boone",
      "state": "IA",
      "zip": "50036",
      "country": "US",
      "latitude": 42.0635198,
      "longitude": -93.8774694,
      "installations": 1,
      "productLines": 1,
      "priorityScore": 100,
      "priorityTier": "A",
      "hasShop": false,
      "hasStudio": true,
      "hasInnX": false,
      "contactName": "",
      "contactEmail": "",
      "contactPhone": "515 598 2626",
      "printers": [
        {
          "serialNumber": "SP012309011447",
          "productLine": "Studio"
        }
      ]
    },
    {
      "id": "site-223",
      "name": "SouthEastern Central Receiving",
      "street": "PO Box 1447",
      "city": "Florence",
      "state": "MS",
      "zip": "39073",
      "country": "US",
      "latitude": 32.1544162,
      "longitude": -90.1239399,
      "installations": 1,
      "productLines": 1,
      "priorityScore": 10,
      "priorityTier": "C",
      "hasShop": false,
      "hasStudio": true,
      "hasInnX": false,
      "contactName": "",
      "contactEmail": "",
      "contactPhone": "",
      "printers": [
        {
          "serialNumber": "SP011842000788",
          "productLine": "Studio"
        }
      ]
    },
    {
      "id": "site-224",
      "name": "Standard Nuclear, Inc.",
      "street": "200 Europia Avenue",
      "city": "Oak Ridge",
      "state": "TN",
      "zip": "37830",
      "country": "US",
      "latitude": 35.9281077,
      "longitude": -84.3950221,
      "installations": 2,
      "productLines": 1,
      "priorityScore": 30,
      "priorityTier": "B",
      "hasShop": false,
      "hasStudio": false,
      "hasInnX": true,
      "contactName": "Ricky Kanak",
      "contactEmail": "rkanak@standardnuclear.com",
      "contactPhone": "(865) 293-9367",
      "printers": [
        {
          "serialNumber": "INV-0269",
          "productLine": "InnX"
        },
        {
          "serialNumber": "INV 0238",
          "productLine": "InnX"
        }
      ]
    },
    {
      "id": "site-225",
      "name": "Stanley Black & Decker, Inc",
      "street": "1000 Stanley Drive",
      "city": "New Britan",
      "state": "CT",
      "zip": "06053",
      "country": "US",
      "latitude": 41.6935948,
      "longitude": -72.8081769,
      "installations": 1,
      "productLines": 1,
      "priorityScore": 20,
      "priorityTier": "C",
      "hasShop": false,
      "hasStudio": true,
      "hasInnX": false,
      "contactName": "Barbara Miller-Webb",
      "contactEmail": "barb.miller-webb@mastergraphics.com",
      "contactPhone": "860-414-6995",
      "printers": [
        {
          "serialNumber": "SP011907001645",
          "productLine": "Studio"
        }
      ]
    },
    {
      "id": "site-226",
      "name": "Stanley Black & Decker, Inc.",
      "street": "1000 Stanley Drive",
      "city": "New Britan",
      "state": "CT",
      "zip": "06053",
      "country": "US",
      "latitude": 41.6935948,
      "longitude": -72.8081769,
      "installations": 1,
      "productLines": 1,
      "priorityScore": 20,
      "priorityTier": "C",
      "hasShop": false,
      "hasStudio": true,
      "hasInnX": false,
      "contactName": "",
      "contactEmail": "",
      "contactPhone": "",
      "printers": [
        {
          "serialNumber": "SP011844001001",
          "productLine": "Studio"
        }
      ]
    },
    {
      "id": "site-227",
      "name": "Stuyvesant High School",
      "street": "320 East 3rd Ave",
      "city": "Tarentum",
      "state": "PA",
      "zip": "15084",
      "country": "US",
      "latitude": 40.6014863,
      "longitude": -79.7519505,
      "installations": 1,
      "productLines": 1,
      "priorityScore": 20,
      "priorityTier": "C",
      "hasShop": false,
      "hasStudio": true,
      "hasInnX": false,
      "contactName": "",
      "contactEmail": "sthomas24@schools.nyc.gov",
      "contactPhone": "1 (724) 230-7400",
      "printers": [
        {
          "serialNumber": "SP011943005065",
          "productLine": "Studio"
        }
      ]
    },
    {
      "id": "site-228",
      "name": "SUNY New Paltz Foundation Inc.",
      "street": "320 East 3rd Ave",
      "city": "Tarentum",
      "state": "PA",
      "zip": "15084",
      "country": "US",
      "latitude": 40.6014863,
      "longitude": -79.7519505,
      "installations": 1,
      "productLines": 1,
      "priorityScore": 20,
      "priorityTier": "C",
      "hasShop": false,
      "hasStudio": true,
      "hasInnX": false,
      "contactName": "Dan Freedman",
      "contactEmail": "freedmad@newpaltz.edu",
      "contactPhone": "1 (724) 230-7400",
      "printers": [
        {
          "serialNumber": "SP011904001607",
          "productLine": "Studio"
        }
      ]
    },
    {
      "id": "site-229",
      "name": "Supreme Sonyika LLC",
      "street": "20 Harmony Ct.",
      "city": "Jasper",
      "state": "GA",
      "zip": "30143",
      "country": "US",
      "latitude": 34.4315665,
      "longitude": -84.4329752,
      "installations": 1,
      "productLines": 1,
      "priorityScore": 20,
      "priorityTier": "C",
      "hasShop": false,
      "hasStudio": true,
      "hasInnX": false,
      "contactName": "Chionesu Sonyika",
      "contactEmail": "illnasu@me.com",
      "contactPhone": "1 (678) 302-7076",
      "printers": [
        {
          "serialNumber": "SP012138008767",
          "productLine": "Studio"
        }
      ]
    },
    {
      "id": "site-230",
      "name": "TAMU Zachery Bldg Renovation - Bldg 125",
      "street": "PO Box 218609",
      "city": "Houston",
      "state": "TX",
      "zip": "77218",
      "country": "US",
      "latitude": 29.78,
      "longitude": -95.67,
      "installations": 1,
      "productLines": 1,
      "priorityScore": 20,
      "priorityTier": "C",
      "hasShop": false,
      "hasStudio": true,
      "hasInnX": false,
      "contactName": "",
      "contactEmail": "",
      "contactPhone": "",
      "printers": [
        {
          "serialNumber": "SP011840000694",
          "productLine": "Studio"
        }
      ]
    },
    {
      "id": "site-231",
      "name": "Tennessee College of Applied Tech-Crossville",
      "street": "2076 Valleydale Terr",
      "city": "Birmingham",
      "state": "AL",
      "zip": "35244",
      "country": "US",
      "latitude": 33.3470475,
      "longitude": -86.7988801,
      "installations": 1,
      "productLines": 1,
      "priorityScore": 20,
      "priorityTier": "C",
      "hasShop": false,
      "hasStudio": true,
      "hasInnX": false,
      "contactName": "",
      "contactEmail": "",
      "contactPhone": "",
      "printers": [
        {
          "serialNumber": "SP012215009749",
          "productLine": "Studio"
        }
      ]
    },
    {
      "id": "site-232",
      "name": "TerraPower, LLC",
      "street": "330 120th Ave NE, Suite 100",
      "city": "Bellevue",
      "state": "WA",
      "zip": "98005",
      "country": "US",
      "latitude": 47.6127502,
      "longitude": -122.1783849,
      "installations": 1,
      "productLines": 1,
      "priorityScore": 10,
      "priorityTier": "C",
      "hasShop": false,
      "hasStudio": true,
      "hasInnX": false,
      "contactName": "Dalton Hughes",
      "contactEmail": "dhughes@terrapower.com",
      "contactPhone": "1 (425) 467-2300",
      "printers": [
        {
          "serialNumber": "SP011840000681",
          "productLine": "Studio"
        }
      ]
    },
    {
      "id": "site-233",
      "name": "Tesla, Inc.",
      "street": "3500 Deer Creek Road",
      "city": "Palo Alto",
      "state": "CA",
      "zip": "94304",
      "country": "US",
      "latitude": 37.3944626,
      "longitude": -122.150581,
      "installations": 1,
      "productLines": 1,
      "priorityScore": 10,
      "priorityTier": "C",
      "hasShop": false,
      "hasStudio": true,
      "hasInnX": false,
      "contactName": "Owen Coyne",
      "contactEmail": "ocoyne@tesla.com",
      "contactPhone": "+1 650-681-5000",
      "printers": [
        {
          "serialNumber": "SP011919001707",
          "productLine": "Studio"
        }
      ]
    },
    {
      "id": "site-234",
      "name": "The Bolles School - Jacksonville",
      "street": "228 Park Avenue South",
      "city": "New York",
      "state": "NY",
      "zip": "10003",
      "country": "US",
      "latitude": 40.7376675,
      "longitude": -73.9885894,
      "installations": 2,
      "productLines": 1,
      "priorityScore": 20,
      "priorityTier": "C",
      "hasShop": false,
      "hasStudio": true,
      "hasInnX": false,
      "contactName": "",
      "contactEmail": "maimana@bolles.org",
      "contactPhone": "5082078666",
      "printers": [
        {
          "serialNumber": "SP011911001665",
          "productLine": "Studio"
        },
        {
          "serialNumber": "SP011911001670",
          "productLine": "Studio"
        }
      ]
    },
    {
      "id": "site-235",
      "name": "The Goodyear Tire & Rubber Company",
      "street": "P.O. Box 666 or email invoices to supplierinvoices@goodyear.com",
      "city": "Akron",
      "state": "OH",
      "zip": "44309",
      "country": "US",
      "latitude": 41.0576768,
      "longitude": -81.4768212,
      "installations": 2,
      "productLines": 1,
      "priorityScore": 20,
      "priorityTier": "C",
      "hasShop": false,
      "hasStudio": true,
      "hasInnX": false,
      "contactName": "",
      "contactEmail": "",
      "contactPhone": "",
      "printers": [
        {
          "serialNumber": "SP011839000656",
          "productLine": "Studio"
        },
        {
          "serialNumber": "SP011843000858",
          "productLine": "Studio"
        }
      ]
    },
    {
      "id": "site-236",
      "name": "The Jacobs Institute, Inc. 3",
      "street": "910 Day Hill Road",
      "city": "Windsor",
      "state": "CT",
      "zip": "06095",
      "country": "US",
      "latitude": 41.8796089,
      "longitude": -72.6995799,
      "installations": 1,
      "productLines": 1,
      "priorityScore": 10,
      "priorityTier": "C",
      "hasShop": false,
      "hasStudio": true,
      "hasInnX": false,
      "contactName": "Josh Davison",
      "contactEmail": "jdavison@jacobsinstitute.org",
      "contactPhone": "860-687-3475",
      "printers": [
        {
          "serialNumber": "SP012223010011",
          "productLine": "Studio"
        }
      ]
    },
    {
      "id": "site-237",
      "name": "The MITRE Corporation",
      "street": "Accounting Office P.O. Box 847",
      "city": "Bedford",
      "state": "MA",
      "zip": "01730-0847",
      "country": "US",
      "latitude": 42.4936646,
      "longitude": -71.2755422,
      "installations": 1,
      "productLines": 1,
      "priorityScore": 10,
      "priorityTier": "C",
      "hasShop": false,
      "hasStudio": true,
      "hasInnX": false,
      "contactName": "",
      "contactEmail": "",
      "contactPhone": "",
      "printers": [
        {
          "serialNumber": "SP011832000350",
          "productLine": "Studio"
        }
      ]
    },
    {
      "id": "site-238",
      "name": "Thermo Fisher Scientific",
      "street": "3200 Sheridan Road",
      "city": "Kenosha",
      "state": "WI",
      "zip": "53140",
      "country": "US",
      "latitude": 42.6084396,
      "longitude": -87.8229569,
      "installations": 1,
      "productLines": 1,
      "priorityScore": 10,
      "priorityTier": "C",
      "hasShop": false,
      "hasStudio": true,
      "hasInnX": false,
      "contactName": "Harrison, Abbey S.",
      "contactEmail": "abbey.harrison@thermofisher.com",
      "contactPhone": "(414) 409-3290",
      "printers": [
        {
          "serialNumber": "SP011911001674",
          "productLine": "Studio"
        }
      ]
    },
    {
      "id": "site-239",
      "name": "Think Variant, Inc",
      "street": "15B County Rte 59",
      "city": "Phoenix",
      "state": "NY",
      "zip": "13135",
      "country": "US",
      "latitude": 43.2483314,
      "longitude": -76.3065114,
      "installations": 2,
      "productLines": 2,
      "priorityScore": 50,
      "priorityTier": "A",
      "hasShop": true,
      "hasStudio": true,
      "hasInnX": false,
      "contactName": "Scott Antonacci",
      "contactEmail": "santonacci@rndcollc.com",
      "contactPhone": "",
      "printers": [
        {
          "serialNumber": "DP742114000187",
          "productLine": "Shop"
        },
        {
          "serialNumber": "SP011844001001-R",
          "productLine": "Studio"
        }
      ]
    },
    {
      "id": "site-240",
      "name": "Three Dimensions ME General Trdg LLC",
      "street": "333 Three D Systems Circle",
      "city": "Rock Hill",
      "state": "SC",
      "zip": "29730",
      "country": "US",
      "latitude": 34.926629,
      "longitude": -81.0142178,
      "installations": 1,
      "productLines": 1,
      "priorityScore": 50,
      "priorityTier": "A",
      "hasShop": false,
      "hasStudio": true,
      "hasInnX": false,
      "contactName": "Anil Pedhadia",
      "contactEmail": "anil@3d-me.com",
      "contactPhone": "+971 4 4433853",
      "printers": [
        {
          "serialNumber": "SP012002005909",
          "productLine": "Studio"
        }
      ]
    },
    {
      "id": "site-241",
      "name": "Touchstone Research Laboratory, Ltd.",
      "street": "125 Newbury Street, Suite 200",
      "city": "Framingham",
      "state": "MA",
      "zip": "1701",
      "country": "US",
      "latitude": 42.3073599,
      "longitude": -71.3963713,
      "installations": 1,
      "productLines": 1,
      "priorityScore": 20,
      "priorityTier": "C",
      "hasShop": false,
      "hasStudio": true,
      "hasInnX": false,
      "contactName": "",
      "contactEmail": "ajc@trl.com",
      "contactPhone": "774 444-3369",
      "printers": [
        {
          "serialNumber": "SP011822000274",
          "productLine": "Studio"
        }
      ]
    },
    {
      "id": "site-242",
      "name": "Touchstone Research Laboratory, Ltd.",
      "street": "The Millennium Centre, 1142 Middle Creek Rd",
      "city": "Triadelphia",
      "state": "WV",
      "zip": "26059",
      "country": "US",
      "latitude": 40.0435184,
      "longitude": -80.6195962,
      "installations": 1,
      "productLines": 1,
      "priorityScore": 20,
      "priorityTier": "C",
      "hasShop": false,
      "hasStudio": false,
      "hasInnX": true,
      "contactName": "Michael Spencer",
      "contactEmail": "mws@trl.com",
      "contactPhone": "(304) 547-5800",
      "printers": [
        {
          "serialNumber": "IV-0127",
          "productLine": "InnX"
        }
      ]
    },
    {
      "id": "site-243",
      "name": "Toyota Motor Engineering & Manufacturing North America, Inc.",
      "street": "Attn:  Accounts Payable 165 N Arlington Hts Rd, Ste 101",
      "city": "Buffalo Grove",
      "state": "IL",
      "zip": "60089",
      "country": "US",
      "latitude": 42.1560235,
      "longitude": -87.9831814,
      "installations": 1,
      "productLines": 1,
      "priorityScore": 20,
      "priorityTier": "C",
      "hasShop": false,
      "hasStudio": true,
      "hasInnX": false,
      "contactName": "",
      "contactEmail": "",
      "contactPhone": "8883082284",
      "printers": [
        {
          "serialNumber": "SP011851001536",
          "productLine": "Studio"
        }
      ]
    },
    {
      "id": "site-244",
      "name": "Triad for US DOE/NNSA",
      "street": "Attn:  Accounts Payable 165 N Arlington Hts Rd, Ste 101",
      "city": "Buffalo Grove",
      "state": "IL",
      "zip": "60089",
      "country": "US",
      "latitude": 42.1560235,
      "longitude": -87.9831814,
      "installations": 2,
      "productLines": 1,
      "priorityScore": 20,
      "priorityTier": "C",
      "hasShop": false,
      "hasStudio": true,
      "hasInnX": false,
      "contactName": "Tyler Romero",
      "contactEmail": "tylerr@lanl.gov",
      "contactPhone": "8883082284",
      "printers": [
        {
          "serialNumber": "SP011907001648",
          "productLine": "Studio"
        },
        {
          "serialNumber": "SP012005006180",
          "productLine": "Studio"
        }
      ]
    },
    {
      "id": "site-245",
      "name": "Trimech Solutions- Demo - Terminated VAR",
      "street": "4991 Lake Brook Drive ## 300",
      "city": "Glen Allen",
      "state": "VA",
      "zip": "23060",
      "country": "US",
      "latitude": 37.6718567,
      "longitude": -77.5724173,
      "installations": 1,
      "productLines": 1,
      "priorityScore": 20,
      "priorityTier": "C",
      "hasShop": false,
      "hasStudio": true,
      "hasInnX": false,
      "contactName": "Krutul, Pawel",
      "contactEmail": "pawel.krutul@uconn.edu",
      "contactPhone": "5086308065",
      "printers": [
        {
          "serialNumber": "SP011836000496",
          "productLine": "Studio"
        }
      ]
    },
    {
      "id": "site-246",
      "name": "Trine University",
      "street": "58 East South Street",
      "city": "Rossville",
      "state": "IN",
      "zip": "46065",
      "country": "US",
      "latitude": 40.416297,
      "longitude": -86.5927913,
      "installations": 1,
      "productLines": 1,
      "priorityScore": 20,
      "priorityTier": "C",
      "hasShop": false,
      "hasStudio": true,
      "hasInnX": false,
      "contactName": "Netcher, Cynthia",
      "contactEmail": "netcherc@trine.edu",
      "contactPhone": "1 (815) 942-4299",
      "printers": [
        {
          "serialNumber": "SP012249000917",
          "productLine": "Studio"
        }
      ]
    },
    {
      "id": "site-247",
      "name": "Turtle Mountain Community College",
      "street": "1018 - 8th Street PMB 22",
      "city": "Boone",
      "state": "IA",
      "zip": "50036",
      "country": "US",
      "latitude": 42.0635198,
      "longitude": -93.8774694,
      "installations": 1,
      "productLines": 1,
      "priorityScore": 20,
      "priorityTier": "C",
      "hasShop": false,
      "hasStudio": true,
      "hasInnX": false,
      "contactName": "Kathryn Hall",
      "contactEmail": "kathrynhall@tm.edu",
      "contactPhone": "",
      "printers": [
        {
          "serialNumber": "SP012217009797",
          "productLine": "Studio"
        }
      ]
    },
    {
      "id": "site-248",
      "name": "Tyndall AFB",
      "street": "325th Fighter Wing",
      "city": "Tyndall",
      "state": "FL",
      "zip": "32403",
      "country": "US",
      "latitude": 30.094339,
      "longitude": -85.640647,
      "installations": 1,
      "productLines": 1,
      "priorityScore": 10,
      "priorityTier": "C",
      "hasShop": false,
      "hasStudio": true,
      "hasInnX": false,
      "contactName": "",
      "contactEmail": "",
      "contactPhone": "",
      "printers": [
        {
          "serialNumber": "SP011905001633",
          "productLine": "Studio"
        }
      ]
    },
    {
      "id": "site-249",
      "name": "U.S. NNSA C/O Sandia National Labs",
      "street": "5655 Jefferson NE Suite B",
      "city": "Albuquerque",
      "state": "NM",
      "zip": "87109",
      "country": "US",
      "latitude": 35.1463547,
      "longitude": -106.5969248,
      "installations": 2,
      "productLines": 1,
      "priorityScore": 30,
      "priorityTier": "B",
      "hasShop": false,
      "hasStudio": true,
      "hasInnX": false,
      "contactName": "",
      "contactEmail": "jaferre@sandia.gov",
      "contactPhone": "5053454720",
      "printers": [
        {
          "serialNumber": "SP012011006760",
          "productLine": "Studio"
        },
        {
          "serialNumber": "SP012030007065",
          "productLine": "Studio"
        }
      ]
    },
    {
      "id": "site-250",
      "name": "UC Lawrence Berkeley National Laboratory",
      "street": "Accounts Payable Office, Subcontract No. 7386389 One Cyclotron Road, M/S 971-AP apinvoices@lbl.gov",
      "city": "Berkeley",
      "state": "CA",
      "zip": "94720",
      "country": "US",
      "latitude": 37.875961,
      "longitude": -122.2537645,
      "installations": 1,
      "productLines": 1,
      "priorityScore": 10,
      "priorityTier": "C",
      "hasShop": false,
      "hasStudio": true,
      "hasInnX": false,
      "contactName": "",
      "contactEmail": "",
      "contactPhone": "",
      "printers": [
        {
          "serialNumber": "SP011831000346",
          "productLine": "Studio"
        }
      ]
    },
    {
      "id": "site-251",
      "name": "Ultra Machining Company, Inc. (UMC)",
      "street": "500 Chelsea Road",
      "city": "Monticello",
      "state": "MN",
      "zip": "55362",
      "country": "US",
      "latitude": 45.2901071,
      "longitude": -93.7794307,
      "installations": 1,
      "productLines": 1,
      "priorityScore": 10,
      "priorityTier": "C",
      "hasShop": false,
      "hasStudio": true,
      "hasInnX": false,
      "contactName": "",
      "contactEmail": "",
      "contactPhone": "",
      "printers": [
        {
          "serialNumber": "SP011844001033",
          "productLine": "Studio"
        }
      ]
    },
    {
      "id": "site-252",
      "name": "UNC Asheville",
      "street": "2076 Valleydale Terr",
      "city": "Birmingham",
      "state": "AL",
      "zip": "35244",
      "country": "US",
      "latitude": 33.3470475,
      "longitude": -86.7988801,
      "installations": 1,
      "productLines": 1,
      "priorityScore": 10,
      "priorityTier": "C",
      "hasShop": false,
      "hasStudio": true,
      "hasInnX": false,
      "contactName": "Karen Braswell",
      "contactEmail": "kbraswel@unca.edu",
      "contactPhone": "+1 800-851-3987 ext 9137",
      "printers": [
        {
          "serialNumber": "SP012138008768",
          "productLine": "Studio"
        }
      ]
    },
    {
      "id": "site-253",
      "name": "UNC-Pembroke",
      "street": "220 Campus Drive",
      "city": "Asheville",
      "state": "NC",
      "zip": "28804",
      "country": "US",
      "latitude": 35.6180344,
      "longitude": -82.5714256,
      "installations": 1,
      "productLines": 1,
      "priorityScore": 10,
      "priorityTier": "C",
      "hasShop": false,
      "hasStudio": true,
      "hasInnX": false,
      "contactName": "Jackie Sylvester",
      "contactEmail": "jackiesylvester@desktopmetal.com",
      "contactPhone": "",
      "printers": [
        {
          "serialNumber": "SP011845001105",
          "productLine": "Studio"
        }
      ]
    },
    {
      "id": "site-254",
      "name": "United States Naval Academy",
      "street": "4991 Lake Brook Drive ## 300",
      "city": "Glen Allen",
      "state": "VA",
      "zip": "23060",
      "country": "US",
      "latitude": 37.6718567,
      "longitude": -77.5724173,
      "installations": 1,
      "productLines": 1,
      "priorityScore": 10,
      "priorityTier": "C",
      "hasShop": false,
      "hasStudio": true,
      "hasInnX": false,
      "contactName": "",
      "contactEmail": "",
      "contactPhone": "",
      "printers": [
        {
          "serialNumber": "SP011840000691",
          "productLine": "Studio"
        }
      ]
    },
    {
      "id": "site-255",
      "name": "University of Dayton Research Institute",
      "street": "Accounts Payable 300 College Park",
      "city": "Dayton",
      "state": "OH",
      "zip": "45469-7023",
      "country": "US",
      "latitude": 39.7359665,
      "longitude": -84.1715389,
      "installations": 1,
      "productLines": 1,
      "priorityScore": 10,
      "priorityTier": "C",
      "hasShop": false,
      "hasStudio": true,
      "hasInnX": false,
      "contactName": "",
      "contactEmail": "",
      "contactPhone": "",
      "printers": [
        {
          "serialNumber": "SP011850001442",
          "productLine": "Studio"
        }
      ]
    },
    {
      "id": "site-256",
      "name": "University of Iowa",
      "street": "Physics & Astro Science    VAN-116",
      "city": "Iowa City",
      "state": "IA",
      "zip": "52242",
      "country": "US",
      "latitude": 41.6388865,
      "longitude": -91.5292972,
      "installations": 1,
      "productLines": 1,
      "priorityScore": 10,
      "priorityTier": "C",
      "hasShop": false,
      "hasStudio": true,
      "hasInnX": false,
      "contactName": "Austin Mckee",
      "contactEmail": "austin-mckee@uiowa.edu",
      "contactPhone": "",
      "printers": [
        {
          "serialNumber": "SP011946005267",
          "productLine": "Studio"
        }
      ]
    },
    {
      "id": "site-257",
      "name": "University of Maine - The Advanced Manufacturing Center",
      "street": "239 Western Ave",
      "city": "Essex",
      "state": "MA",
      "zip": "01929",
      "country": "US",
      "latitude": 42.6229827,
      "longitude": -70.8170293,
      "installations": 1,
      "productLines": 1,
      "priorityScore": 10,
      "priorityTier": "C",
      "hasShop": false,
      "hasStudio": true,
      "hasInnX": false,
      "contactName": "John Belding",
      "contactEmail": "john.belding@maine.edu",
      "contactPhone": "18887684550",
      "printers": [
        {
          "serialNumber": "SP011905001623",
          "productLine": "Studio"
        }
      ]
    },
    {
      "id": "site-258",
      "name": "University of Maryland",
      "street": "3434 US-22 West Suite 130",
      "city": "Branchburg",
      "state": "NJ",
      "zip": "8876",
      "country": "US",
      "latitude": 40.6099422,
      "longitude": -74.7108797,
      "installations": 1,
      "productLines": 1,
      "priorityScore": 10,
      "priorityTier": "C",
      "hasShop": true,
      "hasStudio": false,
      "hasInnX": false,
      "contactName": "John Michael Wulff",
      "contactEmail": "jwulff22@umd.edu",
      "contactPhone": "732-699-0400",
      "printers": [
        {
          "serialNumber": "DP742051000127",
          "productLine": "Shop"
        }
      ]
    },
    {
      "id": "site-259",
      "name": "University of Maryland",
      "street": "4356 Stadium Drive",
      "city": "College Park",
      "state": "MD",
      "zip": "20742",
      "country": "US",
      "latitude": 38.9905037,
      "longitude": -76.9402865,
      "installations": 1,
      "productLines": 1,
      "priorityScore": 10,
      "priorityTier": "C",
      "hasShop": false,
      "hasStudio": true,
      "hasInnX": false,
      "contactName": "David Kriesberg",
      "contactEmail": "dkriesbe@umd.edu",
      "contactPhone": "",
      "printers": [
        {
          "serialNumber": "SP011911001675",
          "productLine": "Studio"
        }
      ]
    },
    {
      "id": "site-260",
      "name": "University Of Memphis",
      "street": "2076 Valleydale Terr",
      "city": "Birmingham",
      "state": "AL",
      "zip": "35244",
      "country": "US",
      "latitude": 33.3470475,
      "longitude": -86.7988801,
      "installations": 1,
      "productLines": 1,
      "priorityScore": 10,
      "priorityTier": "C",
      "hasShop": false,
      "hasStudio": true,
      "hasInnX": false,
      "contactName": "Seyed Mohammad Hojjatzadeh",
      "contactEmail": "shjjtzdh@memphis.edu",
      "contactPhone": "+1 800-851-3987 ext 9137",
      "printers": [
        {
          "serialNumber": "SP012149009224",
          "productLine": "Studio"
        }
      ]
    },
    {
      "id": "site-261",
      "name": "University of Michigan",
      "street": "150 Industrial Drive",
      "city": "Lexington",
      "state": "OH",
      "zip": "44904",
      "country": "US",
      "latitude": 40.6793429,
      "longitude": -82.5641462,
      "installations": 1,
      "productLines": 1,
      "priorityScore": 20,
      "priorityTier": "C",
      "hasShop": false,
      "hasStudio": true,
      "hasInnX": false,
      "contactName": "Gregory Keller",
      "contactEmail": "gbkelle@umich.edu",
      "contactPhone": "1 (419) 884-3360",
      "printers": [
        {
          "serialNumber": "SP012006006256",
          "productLine": "Studio"
        }
      ]
    },
    {
      "id": "site-262",
      "name": "University of Michigan",
      "street": "2355 Bonisteel Blvd",
      "city": "Ann Arbor",
      "state": "MI",
      "zip": "48109",
      "country": "US",
      "latitude": 42.2906213,
      "longitude": -83.7136452,
      "installations": 1,
      "productLines": 1,
      "priorityScore": 20,
      "priorityTier": "C",
      "hasShop": false,
      "hasStudio": false,
      "hasInnX": true,
      "contactName": "Rui Dong",
      "contactEmail": "ruidongd@umich.edu",
      "contactPhone": "(734) 763-0213",
      "printers": [
        {
          "serialNumber": "INV-0282",
          "productLine": "InnX"
        }
      ]
    },
    {
      "id": "site-263",
      "name": "University of North Carolina - Charlotte",
      "street": "2076 Valleydale Terr",
      "city": "Birmingham",
      "state": "AL",
      "zip": "35244",
      "country": "US",
      "latitude": 33.3470475,
      "longitude": -86.7988801,
      "installations": 1,
      "productLines": 1,
      "priorityScore": 20,
      "priorityTier": "C",
      "hasShop": false,
      "hasStudio": true,
      "hasInnX": false,
      "contactName": "Jeff Raquet",
      "contactEmail": "j.raquet@uncc.edu",
      "contactPhone": "+1 800-851-3987 ext 9137",
      "printers": [
        {
          "serialNumber": "SP011905001617",
          "productLine": "Studio"
        }
      ]
    },
    {
      "id": "site-264",
      "name": "UNIVERSITY of NORTH CAROLINA - CHARLOTTE",
      "street": "9201 University City Boulevard",
      "city": "Charlotte",
      "state": "NC",
      "zip": "28223",
      "country": "US",
      "latitude": 35.3052642,
      "longitude": -80.730475,
      "installations": 1,
      "productLines": 1,
      "priorityScore": 20,
      "priorityTier": "C",
      "hasShop": false,
      "hasStudio": false,
      "hasInnX": true,
      "contactName": "Ali Bonakdar",
      "contactEmail": "ali.bonakdar@charlotte.edu",
      "contactPhone": "(704) 687-4863",
      "printers": [
        {
          "serialNumber": "INV-0280",
          "productLine": "InnX"
        }
      ]
    },
    {
      "id": "site-265",
      "name": "University of Pittsburgh",
      "street": "3700 O'Hara Street",
      "city": "Pittsburgh",
      "state": "PA",
      "zip": "15213",
      "country": "US",
      "latitude": 40.4440427,
      "longitude": -79.9580026,
      "installations": 1,
      "productLines": 1,
      "priorityScore": 20,
      "priorityTier": "C",
      "hasShop": false,
      "hasStudio": false,
      "hasInnX": true,
      "contactName": "Dhanapal, Azhagu Devathai",
      "contactEmail": "azd22@pitt.edu",
      "contactPhone": "",
      "printers": [
        {
          "serialNumber": "INV-0295",
          "productLine": "InnX"
        }
      ]
    },
    {
      "id": "site-266",
      "name": "University of Texas at Austin",
      "street": "PO Box 218609",
      "city": "Houston",
      "state": "TX",
      "zip": "77218",
      "country": "US",
      "latitude": 29.78,
      "longitude": -95.67,
      "installations": 1,
      "productLines": 1,
      "priorityScore": 20,
      "priorityTier": "C",
      "hasShop": false,
      "hasStudio": true,
      "hasInnX": false,
      "contactName": "",
      "contactEmail": "",
      "contactPhone": "",
      "printers": [
        {
          "serialNumber": "SP011850001446",
          "productLine": "Studio"
        }
      ]
    },
    {
      "id": "site-267",
      "name": "University of Utah",
      "street": "135 S. 1460 E. Room 412",
      "city": "Salt Lake City",
      "state": "UT",
      "zip": "84112",
      "country": "US",
      "latitude": 40.766242,
      "longitude": -111.8475978,
      "installations": 1,
      "productLines": 1,
      "priorityScore": 20,
      "priorityTier": "C",
      "hasShop": false,
      "hasStudio": false,
      "hasInnX": true,
      "contactName": "COLE WALKER DAVID WALKER",
      "contactEmail": "cole.walker@utah.edu",
      "contactPhone": "(801) 581-8128",
      "printers": [
        {
          "serialNumber": "INV-0188",
          "productLine": "InnX"
        }
      ]
    },
    {
      "id": "site-268",
      "name": "University of Washington",
      "street": "4928 SW Lake Flora Road",
      "city": "Port Orchard",
      "state": "WA",
      "zip": "98367",
      "country": "US",
      "latitude": 47.4685085,
      "longitude": -122.7185046,
      "installations": 1,
      "productLines": 1,
      "priorityScore": 10,
      "priorityTier": "C",
      "hasShop": false,
      "hasStudio": true,
      "hasInnX": false,
      "contactName": "Jeff Croom",
      "contactEmail": "jcroom@uw.edu",
      "contactPhone": "+13608741822",
      "printers": [
        {
          "serialNumber": "SP011907001646",
          "productLine": "Studio"
        }
      ]
    },
    {
      "id": "site-269",
      "name": "US Army - Picatinny Aresenal - EOD",
      "street": "400 Commons Way, Suite D linda.berkman@savitcorp.com",
      "city": "Rockaway",
      "state": "NJ",
      "zip": "7866",
      "country": "US",
      "latitude": 40.9279627,
      "longitude": -74.4931003,
      "installations": 1,
      "productLines": 1,
      "priorityScore": 10,
      "priorityTier": "C",
      "hasShop": false,
      "hasStudio": true,
      "hasInnX": false,
      "contactName": "",
      "contactEmail": "",
      "contactPhone": "",
      "printers": [
        {
          "serialNumber": "SP011905001622",
          "productLine": "Studio"
        }
      ]
    },
    {
      "id": "site-270",
      "name": "US Army ARDEC",
      "street": "3434 US-22 West Suite 130",
      "city": "Branchburg",
      "state": "NJ",
      "zip": "8876",
      "country": "US",
      "latitude": 40.6099422,
      "longitude": -74.7108797,
      "installations": 1,
      "productLines": 1,
      "priorityScore": 20,
      "priorityTier": "C",
      "hasShop": false,
      "hasStudio": true,
      "hasInnX": false,
      "contactName": "",
      "contactEmail": "",
      "contactPhone": "",
      "printers": [
        {
          "serialNumber": "SP011851001532",
          "productLine": "Studio"
        }
      ]
    },
    {
      "id": "site-271",
      "name": "USA YUMA PROVING GROUND",
      "street": "207 East Ohio Street",
      "city": "Chicago",
      "state": "IL",
      "zip": "60611",
      "country": "US",
      "latitude": 41.8923952,
      "longitude": -87.6219111,
      "installations": 2,
      "productLines": 1,
      "priorityScore": 20,
      "priorityTier": "C",
      "hasShop": false,
      "hasStudio": true,
      "hasInnX": false,
      "contactName": "",
      "contactEmail": "",
      "contactPhone": "1 (312) 953-4479",
      "printers": [
        {
          "serialNumber": "SP012204009454",
          "productLine": "Studio"
        },
        {
          "serialNumber": "SP012231000307",
          "productLine": "Studio"
        }
      ]
    },
    {
      "id": "site-272",
      "name": "USASMDC/ARSTRAT",
      "street": "2076 Valleydale Terrace",
      "city": "Birmingham",
      "state": "AL",
      "zip": "35244",
      "country": "US",
      "latitude": 33.3470475,
      "longitude": -86.7988801,
      "installations": 1,
      "productLines": 1,
      "priorityScore": 20,
      "priorityTier": "C",
      "hasShop": false,
      "hasStudio": true,
      "hasInnX": false,
      "contactName": "Ben Strycker",
      "contactEmail": "benjamin.d.strycker.ctr@army.mil",
      "contactPhone": "1 (888) 220-6293",
      "printers": [
        {
          "serialNumber": "SP011939004660",
          "productLine": "Studio"
        }
      ]
    },
    {
      "id": "site-273",
      "name": "UVA-AFCAM (School of Architecture)",
      "street": "1244 Ritchie Hwy., Suite 10",
      "city": "Arnold",
      "state": "MD",
      "zip": "21012",
      "country": "US",
      "latitude": 39.0460417,
      "longitude": -76.5189599,
      "installations": 1,
      "productLines": 1,
      "priorityScore": 20,
      "priorityTier": "C",
      "hasShop": false,
      "hasStudio": true,
      "hasInnX": false,
      "contactName": "Kemp, Trevor H",
      "contactEmail": "tk4b@virginia.edu",
      "contactPhone": "800 9-AMTEK-9",
      "printers": [
        {
          "serialNumber": "SP011911001678",
          "productLine": "Studio"
        }
      ]
    },
    {
      "id": "site-274",
      "name": "VESTAS - Colorado",
      "street": "Attn:  Accounts Payable 165 N Arlington Hts Rd, Ste 101",
      "city": "Buffalo Grove",
      "state": "IL",
      "zip": "60089",
      "country": "US",
      "latitude": 42.1560235,
      "longitude": -87.9831814,
      "installations": 1,
      "productLines": 1,
      "priorityScore": 20,
      "priorityTier": "C",
      "hasShop": false,
      "hasStudio": true,
      "hasInnX": false,
      "contactName": "Jeremy Haight",
      "contactEmail": "jehgt@vestas.com",
      "contactPhone": "8883082284",
      "printers": [
        {
          "serialNumber": "SP011904001606",
          "productLine": "Studio"
        }
      ]
    },
    {
      "id": "site-275",
      "name": "Virginia State University",
      "street": "1244 Ritchie Hwy., Suite 10",
      "city": "Arnold",
      "state": "MD",
      "zip": "21012",
      "country": "US",
      "latitude": 39.0460417,
      "longitude": -76.5189599,
      "installations": 1,
      "productLines": 1,
      "priorityScore": 20,
      "priorityTier": "C",
      "hasShop": false,
      "hasStudio": true,
      "hasInnX": false,
      "contactName": "",
      "contactEmail": "",
      "contactPhone": "800 9-AMTEK-9",
      "printers": [
        {
          "serialNumber": "SP012222009984",
          "productLine": "Studio"
        }
      ]
    },
    {
      "id": "site-276",
      "name": "Virginia Tech",
      "street": "Department of Mechanical Engineering, 100S Randolph Hall, MC 0238, 460 Old Turner St.",
      "city": "Blacksburg",
      "state": "VA",
      "zip": "24061",
      "country": "US",
      "latitude": 37.2306684,
      "longitude": -80.423149,
      "installations": 1,
      "productLines": 1,
      "priorityScore": 20,
      "priorityTier": "C",
      "hasShop": false,
      "hasStudio": false,
      "hasInnX": true,
      "contactName": "Wei, Amanda",
      "contactEmail": "amwei4@vt.edu",
      "contactPhone": "(540) 315-5198",
      "printers": [
        {
          "serialNumber": "IV-0173",
          "productLine": "InnX"
        }
      ]
    },
    {
      "id": "site-277",
      "name": "Welders Supply Company",
      "street": "3200 Sheridan Road",
      "city": "Kenosha",
      "state": "WI",
      "zip": "53140",
      "country": "US",
      "latitude": 42.6084396,
      "longitude": -87.8229569,
      "installations": 1,
      "productLines": 1,
      "priorityScore": 20,
      "priorityTier": "C",
      "hasShop": false,
      "hasStudio": true,
      "hasInnX": false,
      "contactName": "",
      "contactEmail": "",
      "contactPhone": "(414) 409-3290",
      "printers": [
        {
          "serialNumber": "SP011911001672",
          "productLine": "Studio"
        }
      ]
    },
    {
      "id": "site-278",
      "name": "Wentworth Institute of Technology",
      "street": "239 Western Ave",
      "city": "Essex",
      "state": "MA",
      "zip": "01929",
      "country": "US",
      "latitude": 42.6229827,
      "longitude": -70.8170293,
      "installations": 1,
      "productLines": 1,
      "priorityScore": 20,
      "priorityTier": "C",
      "hasShop": false,
      "hasStudio": true,
      "hasInnX": false,
      "contactName": "AMAdmin",
      "contactEmail": "amadmin@wit.edu",
      "contactPhone": "18887684550",
      "printers": [
        {
          "serialNumber": "SP011849001344",
          "productLine": "Studio"
        }
      ]
    },
    {
      "id": "site-279",
      "name": "Westwind Computer Products",
      "street": "5655 Jefferson NE Suite B",
      "city": "Albuquerque",
      "state": "NM",
      "zip": "87109",
      "country": "US",
      "latitude": 35.1463547,
      "longitude": -106.5969248,
      "installations": 1,
      "productLines": 1,
      "priorityScore": 20,
      "priorityTier": "C",
      "hasShop": false,
      "hasStudio": true,
      "hasInnX": false,
      "contactName": "",
      "contactEmail": "crosequist@msn.com",
      "contactPhone": "5053454720",
      "printers": [
        {
          "serialNumber": "SP011943005088",
          "productLine": "Studio"
        }
      ]
    },
    {
      "id": "site-280",
      "name": "Wilson Tool Int'l Inc.",
      "street": "12912 Farnham Ave",
      "city": "White Bear Lake",
      "state": "MN",
      "zip": "55110",
      "country": "US",
      "latitude": 45.1372139,
      "longitude": -93.0030227,
      "installations": 1,
      "productLines": 1,
      "priorityScore": 10,
      "priorityTier": "C",
      "hasShop": false,
      "hasStudio": true,
      "hasInnX": false,
      "contactName": "Brian Lee",
      "contactEmail": "brian.lee@wilsontool.com",
      "contactPhone": "1 (651) 286-6001",
      "printers": [
        {
          "serialNumber": "SP011850001445",
          "productLine": "Studio"
        }
      ]
    },
    {
      "id": "site-281",
      "name": "WSU(Pullman)",
      "street": "100 Dairy Rd",
      "city": "Pullman",
      "state": "WA",
      "zip": "99164-2920",
      "country": "US",
      "latitude": 46.7282725,
      "longitude": -117.1471259,
      "installations": 1,
      "productLines": 1,
      "priorityScore": 20,
      "priorityTier": "C",
      "hasShop": false,
      "hasStudio": false,
      "hasInnX": true,
      "contactName": "Amit Bandyopadhyay",
      "contactEmail": "",
      "contactPhone": "(509) 335-7461",
      "printers": [
        {
          "serialNumber": "IV-0183",
          "productLine": "InnX"
        }
      ]
    },
    {
      "id": "site-282",
      "name": "Youngstown State University",
      "street": "1 Tressel Way",
      "city": "Youngstown",
      "state": "OH",
      "zip": "44555",
      "country": "US",
      "latitude": 41.1078563,
      "longitude": -80.6458715,
      "installations": 1,
      "productLines": 1,
      "priorityScore": 20,
      "priorityTier": "C",
      "hasShop": false,
      "hasStudio": false,
      "hasInnX": true,
      "contactName": "Jay Wargacki",
      "contactEmail": "",
      "contactPhone": "(330) 941-3016",
      "printers": [
        {
          "serialNumber": "IV-0169",
          "productLine": "InnX"
        }
      ]
    }
  ]
}